$PGRMZ,271,f,3*1F
$GPRTE,1,1,c,*37
$GPRMC,074300,V,2658.1762,N,06655.5016,E,10.8,0.0,141112,0.4,E,S*2E
$GPRMB,V,,,,,,,,,,,,A,S*0E
$GPGGA,074300,2658.1762,N,06655.5016,E,8,09,2.0,82.5,M,-44.1,M,,*58
$GPGSA,A,3,02,05,,12,15,18,21,25,26,29,,,3.6,2.0,3.0*34
$GPGSV,3,1,10,02,23,051,42,05,53,049,48,10,00,037,00,12,50,185,47*75
$GPGSV,3,2,10,15,17,152,40,18,13,213,39,21,26,273,43,25,62,256,49*71
$GPGSV,3,3,10,26,17,116,40,29,47,338,47*7B
$GPGLL,2658.1762,N,06655.5016,E,074300,V,S*49
$GPBOD,,T,,M,,*47
$PGRME,15.0,M,22.5,M,27.0,M*1A
$PGRMZ,271,f,3*1F
$GPRTE,1,1,c,*37
$GPRMC,074302,V,2658.1822,N,06655.5016,E,10.8,0.0,141112,0.4,E,S*27
$GPRMB,V,,,,,,,,,,,,A,S*0E
$GPGGA,074302,2658.1822,N,06655.5016,E,8,09,2.0,82.5,M,-44.1,M,,*51
$GPGSA,A,3,02,05,,12,15,18,21,25,26,29,,,3.6,2.0,3.0*34
$GPGSV,3,1,10,02,23,051,42,05,53,049,47,10,00,037,00,12,50,185,47*7A
$GPGSV,3,2,10,15,17,152,40,18,13,213,39,21,26,273,43,25,62,256,49*71
$GPGSV,3,3,10,26,17,116,39,29,47,338,47*75
$GPGLL,2658.1822,N,06655.5016,E,074302,V,S*40
$GPBOD,,T,,M,,*47
$PGRME,15.0,M,22.5,M,27.0,M*1A
$PGRMZ,271,f,3*1F
$GPRTE,1,1,c,*37
$GPRMC,074304,V,2658.1882,N,06655.5016,E,10.8,0.0,141112,0.4,E,S*2B
$GPRMB,V,,,,,,,,,,,,A,S*0E
$GPGGA,074304,2658.1882,N,06655.5016,E,8,09,2.0,82.5,M,-44.1,M,,*5D
$GPGSA,A,3,02,05,,12,15,18,21,25,26,29,,,3.6,2.0,3.0*34
$GPGSV,3,1,10,02,23,051,42,05,53,049,48,10,00,037,00,12,50,185,47*75
$GPGSV,3,2,10,15,17,152,40,18,13,213,39,21,26,273,42,25,62,256,49*70
$GPGSV,3,3,10,26,17,116,39,29,47,338,47*75
$GPGLL,2658.1882,N,06655.5016,E,074304,V,S*4C
$GPBOD,,T,,M,,*47
$PGRME,15.0,M,22.5,M,27.0,M*1A
$PGRMZ,271,f,3*1F
$GPRTE,1,1,c,*37
$GPRMC,074306,V,2658.1942,N,06655.5016,E,10.8,0.0,141112,0.4,E,S*26
$GPRMB,V,,,,,,,,,,,,A,S*0E
$GPGGA,074306,2658.1942,N,06655.5016,E,8,09,2.0,82.5,M,-44.1,M,,*52
$GPGSA,A,3,02,05,,12,15,18,21,25,26,29,,,3.6,2.0,3.0*34
$GPGSV,3,1,10,02,23,051,42,05,53,049,48,10,00,037,00,12,49,185,47*7D
$GPGSV,3,2,10,15,17,152,40,18,13,213,39,21,26,273,43,25,62,256,49*71
$GPGSV,3,3,10,26,17,116,40,29,47,338,47*7B
$GPGLL,2658.1942,N,06655.5016,E,074306,V,S*43
$GPBOD,,T,,M,,*47
$PGRME,15.0,M,22.5,M,27.0,M*1A
$PGRMZ,271,f,3*1F
$GPRTE,1,1,c,*37
$GPRMC,074308,V,2658.2002,N,06655.5016,E,10.8,0.0,141112,0.4,E,S*26
$GPRMB,V,,,,,,,,,,,,A,S*0E
$GPGGA,074308,2658.2002,N,06655.5016,E,8,09,2.0,82.5,M,-44.1,M,,*52
456.0094,N,06655.5016,E,060836,V,S*43
$GPBOD,,T,,M,,*47
$PGRME,15.0,M,22.5,M,27.0,M*1A
$PGRMZ,271,f,3*1F
$GPRTE,1,1,c,*37
$GPRMC,060838,V,2656.0154,N,06655.5016,E,10.8,0.0,141112,0.4,E,S*27
$GPRMB,V,,,,,,,,,,,,A,S*0E
$GPGGA,060838,2656.0154,N,06655.5016,E,8,08,2.0,82.6,M,-44.2,M,,*50
$GPGSA,A,3,02,04,05,09,10,12,25,29,,,,,3.6,2.0,3.0*32
$GPGSV,2,1,08,02,54,021,48,04,12,046,38,05,55,136,48,09,19,206,41*7D
$GPGSV,2,2,08,10,31,057,44,12,77,318,51,25,38,320,45,29,20,303,41*7D
$GPGLL,2656.0154,N,06655.5016,E,060838,V,S*40
$GPBOD,,T,,M,,*47
$PGRME,15.0,M,22.5,M,27.0,M*1A
$PGRMZ,271,f,3*1F
$GPRTE,1,1,c,*37
$GPRMC,060840,V,2656.0214,N,06655.5016,E,10.8,0.0,141112,0.4,E,S*2F
$GPRMB,V,,,,,,,,,,,,A,S*0E
$GPGGA,060840,2656.0214,N,06655.5016,E,8,08,2.0,82.6,M,-44.2,M,,*58
$GPGSA,A,3,02,04,05,09,10,12,25,29,,,,,3.6,2.0,3.0*32
$GPGSV,2,1,08,02,54,021,48,04,12,046,39,05,55,136,48,09,19,206,41*7C
$GPGSV,2,2,08,10,31,057,44,12,77,318,51,25,38,320,45,29,20,303,42*7E
$GPGLL,2656.0214,N,06655.5016,E,060840,V,S*48
$GPBOD,,T,,M,,*47
$PGRME,15.0,M,22.5,M,27.0,M*1A
$PGRMZ,271,f,3*1F
$GPRTE,1,1,c,*37
$GPRMC,060842,V,2656.0274,N,06655.5016,E,10.8,0.0,141112,0.4,E,S*2B
$GPRMB,V,,,,,,,,,,,,A,S*0E
$GPGGA,060842,2656.0274,N,06655.5016,E,8,08,2.0,82.6,M,-44.2,M,,*5C
$GPGSA,A,3,02,04,05,09,10,12,25,29,,,,,3.6,2.0,3.0*32
$GPGSV,2,1,08,02,54,021,48,04,12,046,39,05,55,136,48,09,19,206,41*7C
$GPGSV,2,2,08,10,31,057,44,12,78,316,51,25,38,320,45,29,20,303,41*7C
$GPGLL,2656.0274,N,06655.5016,E,060842,V,S*4C
$GPBOD,,T,,M,,*47
$PGRME,15.0,M,22.5,M,27.0,M*1A
$PGRMZ,271,f,3*1F
$GPRTE,1,1,c,*37
$GPRMC,060844,V,2656.0335,N,06655.5016,E,10.8,0.0,141112,0.4,E,S*29
$GPRMB,V,,,,,,,,,,,,A,S*0E
$GPGGA,060844,2656.0335,N,06655.5016,E,8,08,2.0,82.6,M,-44.2,M,,*5E
$GPGSA,A,3,02,04,05,09,10,12,25,29,,,,,3.6,2.0,3.0*32
$GPGSV,2,1,08,02,54,021,48,04,12,046,38,05,55,136,48,09,19,206,41*7D
$GPGSV,2,2,08,10,31,057,44,12,78,316,51,25,38,320,45,29,20,303,41*7C
$GPGLL,2656.0335,N,06655.5016,E,060844,V,S*4E
$GPBOD,,T,,M,,*47
$PGRME,15.0,M,22.5,M,27.0,M*1A
$PGRMZ,271,f,3*1F
$GPRTE,1,1,c,*37
$GPRMC,060846,V,2656.0395,N,06655.5016,E,10.8,0.0,141112,0.4,E,S*21
$GPRMB,V,,,,,,,,,,,,A,S*0E
$GPGGA,060846,2656.0395,N,06655.5016,E,8,08,2.0,82.6,M,-44.2,M,,*56
$GPGSA,A,3,02,04,05,09,10,12,25,29,,,,,3.6,2.0,3.0*32
$GPGSV,2,1,08,02,54,021,48,04,12,046,38,05,55,136,48,09,19,206,41*7D
$GPGSV,2,2,08,10,31,057,44,12,78,316,51,25,38,320,45,29,20,303,41*7C
$GPGLL,2656.0395,N,06655.5016,E,060846,V,S*46
$GPBOD,,T,,M,,*47
$PGRME,15.0,M,22.5,M,27.0,M*1A
$PGRMZ,271,f,3*1F
$GPRTE,1,1,c,*37
$GPRMC,060848,V,2656.0455,N,06655.5016,E,10.8,0.0,141112,0.4,E,S*26
$GPRMB,V,,,,,,,,,,,,A,S*0E
$GPGGA,060848,2656.0455,N,06655.5016,E,8,08,2.0,82.6,M,-44.2,M,,*53
$GPGSA,A,3,02,04,05,09,10,12,25,29,,,,,3.6,2.0,3.0*32
$GPGSV,2,1,08,02,54,021,48,04,12,046,39,05,55,136,48,09,19,206,41*7C
$GPGSV,2,2,08,10,31,057,44,12,78,316,51,25,38,320,45,29,20,303,41*7C
$GPGLL,2656.0455,N,06655.5016,E,060848,V,S*43
$GPBOD,,T,,M,,*47
$PGRME,15.0,M,22.5,M,27.0,M*1A
$PGRMZ,271,f,3*1F
$GPRTE,1,1,c,*37
$GPRMC,060850,V,2656.0515,N,06655.5016,E,10.8,0.0,141112,0.4,E,S*28
$GPRMB,V,,,,,,,,,,,,A,S*0E
$GPGGA,060850,2656.0515,N,06655.5016,E,8,08,2.0,82.6,M,-44.2,M,,*5F
$GPGSA,A,3,02,04,05,09,10,12,25,29,,,,,3.6,2.0,3.0*32
$GPGSV,2,1,08,02,54,021,48,04,12,046,39,05,55,136,48,09,19,206,40*7D
$GPGSV,2,2,08,10,31,057,44,12,78,316,51,25,38,320,46,29,20,303,41*7F
$GPGLL,2656.0515,N,06655.5016,E,060850,V,S*4F
$GPBOD,,T,,M,,*47
$PGRME,15.0,M,22.5,M,27.0,M*1A
$PGRMZ,271,f,3*1F
$GPRTE,1,1,c,*37
$GPRMC,060852,V,2656.0575,N,06655.5016,E,10.8,0.0,141112,0.4,E,S*2C
$GPRMB,V,,,,,,,,,,,,A,S*0E
$GPGGA,060852,2656.0575,N,06655.5016,E,8,08,2.0,82.6,M,-44.2,M,,*5B
$GPGSA,A,3,02,04,05,09,10,12,25,29,,,,,3.6,2.0,3.0*32
$GPGSV,2,1,08,02,54,021,48,04,12,046,39,05,55,136,48,09,19,206,41*7C
$GPGSV,2,2,08,10,31,057,44,12,78,316,51,25,38,320,46,29,20,303,42*7C
$GPGLL,2656.0575,N,06655.5016,E,060852,V,S*4B
$GPBOD,,T,,M,,*47
$PGRME,15.0,M,22.5,M,27.0,M*1A
$PGRMZ,271,f,3*1F
$GPRTE,1,1,c,*37
$GPRMC,060854,V,2656.0635,N,06655.5016,E,10.8,0.0,141112,0.4,E,S*2D
$GPRMB,V,,,,,,,,,,,,A,S*0E
$GPGGA,060854,2656.0635,N,06655.5016,E,8,08,2.0,82.6,M,-44.2,M,,*5A
$GPGSA,A,3,02,04,05,09,10,12,25,29,,,,,3.6,2.0,3.0*32
$GPGSV,2,1,08,02,54,021,48,04,12,046,38,05,55,136,48,09,19,206,41*7D
$GPGSV,2,2,08,10,31,057,44,12,78,316,51,25,38,320,46,29,20,303,41*7F
$GPGLL,2656.0635,N,06655.5016,E,060854,V,S*4A
$GPBOD,,T,,M,,*47
$PGRME,15.0,M,22.5,M,27.0,M*1A
$PGRMZ,271,f,3*1F
$GPRTE,1,1,c,*37
$GPRMC,060856,V,2656.0696,N,06655.5016,E,10.8,0.0,141112,0.4,E,S*26
$GPRMB,V,,,,,,,,,,,,A,S*0E
$GPGGA,060856,2656.0696,N,06655.5016,E,8,08,2.0,82.6,M,-44.2,M,,*51
$GPGSA,A,3,02,04,05,09,10,12,25,29,,,,,3.6,2.0,3.0*32
$GPGSV,2,1,08,02,54,021,48,04,12,046,38,05,55,136,48,09,19,206,40*7C
$GPGSV,2,2,08,10,31,057,44,12,78,316,51,25,38,320,45,29,20,303,41*7C
$GPGLL,2656.0696,N,06655.5016,E,060856,V,S*41
$GPBOD,,T,,M,,*47
$PGRME,15.0,M,22.5,M,27.0,M*1A
$PGRMZ,271,f,3*1F
$GPRTE,1,1,c,*37
$GPRMC,060858,V,2656.0756,N,06655.5016,E,10.8,0.0,141112,0.4,E,S*25
$GPRMB,V,,,,,,,,,,,,A,S*0E
$GPGGA,060858,2656.0756,N,06655.5016,E,8,08,2.0,82.6,M,-44.2,M,,*52
$GPGSA,A,3,02,04,05,09,10,12,25,29,,,,,3.6,2.0,3.0*32
$GPGSV,2,1,08,02,54,021,48,04,12,046,38,05,55,136,48,09,19,206,41*7D
$GPGSV,2,2,08,10,31,057,44,12,78,316,51,25,38,320,45,29,20,303,41*7C
$GPGLL,2656.0756,N,06655.5016,E,060858,V,S*42
$GPBOD,,T,,M,,*47
$PGRME,15.0,M,22.5,M,27.0,M*1A
$PGRMZ,271,f,3*1F
$GPRTE,1,1,c,*37
$GPRMC,060900,V,2656.0816,N,06655.5016,E,10.8,0.0,141112,0.4,E,S*22
$GPRMB,V,,,,,,,,,,,,A,S*0E
$GPGGA,060900,2656.0816,N,06655.5016,E,8,08,2.0,82.6,M,-44.2,M,,*55
$GPGSA,A,3,02,04,05,09,10,12,25,29,,,,,3.6,2.0,3.0*32
$GPGSV,2,1,08,02,54,021,48,04,12,046,38,05,55,136,48,09,19,206,41*7D
$GPGSV,2,2,08,10,31,057,45,12,78,316,51,25,38,320,45,29,20,303,41*7D
$GPGLL,2656.0816,N,06655.5016,E,060900,V,S*45
$GPBOD,,T,,M,,*47
$PGRME,15.0,M,22.5,M,27.0,M*1A
$PGRMZ,271,f,3*1F
$GPRTE,1,1,c,*37
$GPRMC,060902,V,2656.0876,N,06655.5016,E,10.8,0.0,141112,0.4,E,S*26
$GPRMB,V,,,,,,,,,,,,A,S*0E
$GPGGA,060902,2656.0876,N,06655.5016,E,8,08,2.0,82.6,M,-44.2,M,,*51
$GPGSA,A,3,02,04,05,09,10,12,25,29,,,,,3.6,2.0,3.0*32
$GPGSV,2,1,08,02,54,021,48,04,12,046,38,05,55,136,48,09,19,206,40*7C
$GPGSV,2,2,08,10,31,057,45,12,78,316,51,25,38,320,45,29,20,303,42*7E
$GPGLL,2656.0876,N,06655.5016,E,060902,V,S*41
$GPBOD,,T,,M,,*47
$PGRME,15.0,M,22.5,M,27.0,M*1A
$PGRMZ,271,f,3*1F
$GPRTE,1,1,c,*37
$GPRMC,060904,V,2656.0936,N,06655.5016,E,10.8,0.0,141112,0.4,E,S*25
$GPRMB,V,,,,,,,,,,,,A,S*0E
$GPGGA,060904,2656.0936,N,06655.5016,E,8,08,2.0,82.6,M,-44.2,M,,*52
$GPGSA,A,3,02,04,05,09,10,12,25,29,,,,,3.6,2.0,3.0*32
$GPGSV,2,1,08,02,54,021,48,04,12,046,38,05,55,136,48,09,19,206,40*7C
$GPGSV,2,2,08,10,31,057,44,12,78,316,51,25,38,320,45,29,20,303,42*7F
$GPGLL,2656.0936,N,06655.5016,E,060904,V,S*42
$GPBOD,,T,,M,,*47
$PGRME,15.0,M,22.5,M,27.0,M*1A
.515,0000.1426,S,00000.2673,W,0,00,50,120.7,M,0.0,M,000,0000*7F
$GPGSA,M,1,,,,,,,,,,,,,50,50,50*17
$GPRMC,165154.515,V,0000.1426,S,00000.2673,W,18.7,260.2,081112,0.0*2A
$GPGLL,0000.1426,S,00000.2673,W,165154.515,V*2E
$GPGGA,165155.578,0000.1452,S,00000.2521,W,0,00,50,120.7,M,0.0,M,000,0000*72
$GPGSA,M,1,,,,,,,,,,,,,50,50,50*17
$GPRMC,165155.578,V,0000.1452,S,00000.2521,W,18.2,260.2,081112,0.0*22
$GPGLL,0000.1452,S,00000.2521,W,165155.578,V*23
$GPGGA,165156.625,0000.1478,S,00000.2567,W,0,00,50,120.7,M,0.0,M,000,0000*70
$GPGSA,M,1,,,,,,,,,,,,,50,50,50*17
$GPRMC,165156.625,V,0000.1478,S,00000.2567,W,19.1,260.2,081112,0.0*22
$GPGLL,0000.1478,S,00000.2567,W,165156.625,V*21
$GPGSV,2,1,8,25,62,053,39,01,55,068,47,14,19,095,44,30,11,048,36*4A
$GPGSV,2,2,8,20,51,315,39,16,32,162,03,11,18,264,20,21,06,275,13*44
$GPGGA,165157.703,0000.1508,S,00000.2618,W,0,00,50,120.7,M,0.0,M,000,0000*79
$GPGSA,M,1,,,,,,,,,,,,,50,50,50*17
$GPRMC,165157.703,V,0000.1508,S,00000.2618,W,19.6,260.2,081112,0.0*2C
$GPGLL,0000.1508,S,00000.2618,W,165157.703,V*28
$GPGGA,165158.750,0000.1536,S,00000.2668,W,0,00,50,121.0,M,0.0,M,000,0000*7C
$GPGSA,M,1,,,,,,,,,,,,,50,50,50*17
$GPRMC,165158.750,V,0000.1536,S,00000.2668,W,20.0,260.2,081112,0.0*23
$GPGLL,0000.1536,S,00000.2668,W,165158.750,V*2B
$GPGGA,165159.796,0000.1566,S,00000.2719,W,0,00,50,121.6,M,0.0,M,000,0000*73
$GPGSA,M,1,,,,,,,,,,,,,50,50,50*17
$GPRMC,165159.796,V,0000.1566,S,00000.2719,W,20.9,260.2,081112,0.0*23
$GPGLL,0000.1566,S,00000.2719,W,165159.796,V*22
$GPGGA,165200.843,0000.1596,S,00000.2772,W,0,00,50,121.0,M,0.0,M,000,0000*7F
$GPGSA,M,1,,,,,,,,,,,,,50,50,50*17
$GPRMC,165200.843,V,0000.1596,S,00000.2772,W,20.9,260.2,081112,0.0*29
$GPGLL,0000.1596,S,00000.2772,W,165200.843,V*28
$GPGGA,165201.890,0000.1627,S,00000.2826,W,0,00,50,120.4,M,0.0,M,000,0000*70
$GPGSA,M,1,,,,,,,,,,,,,50,50,50*17
$GPRMC,165201.890,V,0000.1627,S,00000.2826,W,20.9,260.2,081112,0.0*23
$GPGLL,0000.1627,S,00000.2826,W,165201.890,V*22
$GPGSV,2,1,8,25,62,053,40,01,55,068,48,14,19,095,44,30,11,048,37*4A
$GPGSV,2,2,8,20,51,315,39,16,32,162,02,11,18,264,21,21,06,275,11*46
$GPGGA,165202.984,0000.1657,S,00000.2878,W,0,00,50,120.7,M,0.0,M,000,0000*7A
$GPGSA,M,1,,,,,,,,,,,,,50,50,50*17
$GPRMC,165202.984,V,0000.1657,S,00000.2878,W,20.4,260.2,081112,0.0*27
$GPGLL,0000.1657,S,00000.2878,W,165202.984,V*2B
$GPGGA,165204.031,0000.1686,S,00000.2927,W,0,00,50,120.7,M,0.0,M,000,0000*7C
$GPGSA,M,1,,,,,,,,,,,,,50,50,50*17
$GPRMC,165204.031,V,0000.1686,S,00000.2927,W,18.7,260.2,081112,0.0*29
$GPGLL,0000.1686,S,00000.2927,W,165204.031,V*2D
$GPGGA,165205.078,0000.1712,S,00000.2973,W,0,00,50,121.0,M,0.0,M,000,0000*7B
$GPGSA,M,1,,,,,,,,,,,,,50,50,50*17
$GPRMC,165205.078,V,0000.1712,S,00000.2973,W,18.2,260.2,081112,0.0*2D
$GPGLL,0000.1712,S,00000.2973,W,165205.078,V*2C
$GPGGA,165206.125,0000.1739,S,00000.3020,W,0,00,50,121.0,M,0.0,M,000,0000*76
$GPGSA,M,1,,,,,,,,,,,,,50,50,50*17
$GPRMC,165206.125,V,0000.1739,S,00000.3020,W,18.2,260.2,081112,0.0*20
$GPGLL,0000.1739,S,00000.3020,W,165206.125,V*21
$GPGGA,165207.171,0000.1765,S,00000.3064,W,0,00,50,121.0,M,0.0,M,000,0000*7F
$GPGSA,M,1,,,,,,,,,,,,,50,50,50*17
$GPRMC,165207.171,V,0000.1765,S,00000.3064,W,17.4,260.2,081112,0.0*20
$GPGLL,0000.1765,S,00000.3064,W,165207.171,V*28
$GPGSV,2,1,8,25,62,053,42,01,55,068,47,14,19,095,43,30,11,048,38*4F
$GPGSV,2,2,8,20,51,315,38,16,32,162,01,11,18,264,22,21,06,275,10*46
$GPGGA,165208.250,0000.1790,S,00000.3108,W,0,00,50,120.4,M,0.0,M,000,0000*74
$GPGSA,M,1,,,,,,,,,,,,,50,50,50*17
$GPRMC,165208.250,V,0000.1790,S,00000.3108,W,16.9,260.2,081112,0.0*22
$GPGLL,0000.1790,S,00000.3108,W,165208.250,V*26
$GPGGA,165209.296,0000.1814,S,00000.3151,W,0,00,50,120.4,M,0.0,M,000,0000*70
$GPGSA,M,1,,,,,,,,,,,,,50,50,50*17
$GPRMC,165209.296,V,0000.1814,S,00000.3151,W,17.4,260.2,081112,0.0*2A
$GPGLL,0000.1814,S,00000.3151,W,165209.296,V*22
$GPGGA,165210.343,0000.1839,S,00000.3193,W,0,00,50,120.1,M,0.0,M,000,0000*75
$GPGSA,M,1,,,,,,,,,,,,,50,50,50*17
$GPRMC,165210.343,V,0000.1839,S,00000.3193,W,16.9,260.2,081112,0.0*26
$GPGLL,0000.1839,S,00000.3193,W,165210.343,V*22
$GPGGA,165211.406,0000.1864,S,00000.3237,W,0,00,50,120.4,M,0.0,M,000,0000*72
$GPGSA,M,1,,,,,,,,,,,,,50,50,50*17
$GPRMC,165211.406,V,0000.1864,S,00000.3237,W,17.4,260.2,081112,0.0*28
$GPGLL,0000.1864,S,00000.3237,W,165211.406,V*20
$GPGGA,165212.453,0000.1890,S,00000.3282,W,0,00,50,120.4,M,0.0,M,000,0000*74
$GPGSA,M,1,,,,,,,,,,,,,50,50,50*17
$GPRMC,165212.453,V,0000.1890,S,00000.3282,W,17.4,260.2,081112,0.0*2E
$GPGLL,0000.1890,S,00000.3282,W,165212.453,V*26
$GPGSV,2,1,8,25,62,053,39,01,55,068,48,14,19,095,45,30,11,048,37*45
$GPGSV,2,2,8,20,51,315,36,16,32,162,03,11,18,264,21,21,06,275,10*49
$GPGGA,165213.531,0000.1915,S,00000.3326,W,0,00,50,120.7,M,0.0,M,000,0000*70
$GPGSA,M,1,,,,,,,,,,,,,50,50,50*17
$GPRMC,165213.531,V,0000.1915,S,00000.3326,W,16.9,260.2,081112,0.0*25
$GPGLL,0000.1915,S,00000.3326,W,165213.531,V*21
$GPGGA,165214.578,0000.1940,S,00000.3369,W,0,00,50,120.4,M,0.0,M,000,0000*72
$GPGSA,M,1,,,,,,,,,,,,,50,50,50*17
$GPRMC,165214.578,V,0000.1940,S,00000.3369,W,16.9,260.2,081112,0.0*26
$GPGLL,0000.1940,S,00000.3369,W,165214.578,V*20
$GPGGA,165215.625,0000.1964,S,00000.3411,W,0,00,50,120.1,M,0.0,M,000,0000*73
$GPGSA,M,1,,,,,,,,,,,,,50,50,50*17
$GPRMC,165215.625,V,0000.1964,S,00000.3411,W,16.5,260.2,081112,0.0*2C
$GPGLL,0000.1964,S,00000.3411,W,165215.625,V*26
$GPGGA,165216.671,0000.1989,S,00000.3453,W,0,00,50,120.1,M,0.0,M,000,0000*74
$GPGSA,M,1,,,,,,,,,,,,,50,50,50*17
$GPRMC,165216.671,V,0000.1989,S,00000.3453,W,16.9,260.2,081112,0.0*27
$GPGLL,0000.1989,S,00000.3453,W,165216.671,V*23
$GPGGA,165217.718,0000.2014,S,00000.3496,W,0,00,50,120.4,M,0.0,M,000,0000*79
$GPGSA,M,1,,,,,,,,,,,,,50,50,50*17
$GPRMC,165217.718,V,0000.2014,S,00000.3496,W,17.4,260.2,081112,0.0*23
$GPGLL,0000.2014,S,00000.3496,W,165217.718,V*2B
$GPGSV,2,1,8,25,62,053,40,01,55,068,43,14,19,095,47,30,11,048,38*4D
$GPGSV,2,2,8,20,51,315,34,16,32,162,05,11,18,264,19,21,06,275,08*4F
$GPGGA,165218.796,0000.2040,S,00000.3542,W,0,00,50,121.0,M,0.0,M,000,0000*7C
$GPGSA,M,1,,,,,,,,,,,,,50,50,50*17
$GPRMC,165218.796,V,0000.2040,S,00000.3542,W,17.8,260.2,081112,0.0*2F
$GPGLL,0000.2040,S,00000.3542,W,165218.796,V*2B
$GPGGA,165219.859,0000.2066,S,00000.3588,W,0,00,50,121.3,M,0.0,M,000,0000*70
$GPGSA,M,1,,,,,,,,,,,,,50,50,50*17
$GPRMC,165219.859,V,0000.2066,S,00000.3588,W,18.2,260.2,081112,0.0*25
$GPGLL,0000.2066,S,00000.3588,W,165219.859,V*26
$GPGGA,165220.906,0000.2093,S,00000.3634,W,0,00,50,121.6,M,0.0,M,000,0000*7A
$GPGSA,M,1,,,,,,,,,,,,,50,50,50*17
$GPRMC,165220.906,V,0000.2093,S,00000.3634,W,18.2,260.2,081112,0.0*2A
$GPGLL,0000.2093,S,00000.3634,W,165220.906,V*2B
$GPGGA,165221.953,0000.2119,S,00000.3679,W,0,00,50,121.0,M,0.0,M,000,0000*77
$GPGSA,M,1,,,,,,,,,,,,,50,50,50*17
$GPRMC,165221.953,V,0000.2119,S,00000.3679,W,17.8,260.2,081112,0.0*26
$GPGLL,0000.2119,S,00000.3679,W,165221.953,V*20
$GPGGA,165223.000,0000.2145,S,00000.3726,W,0,00,50,121.3,M,0.0,M,000,0000*79
$GPGSA,M,1,,,,,,,,,,,,,50,50,50*17
$GPRMC,165223.000,V,0000.2145,S,00000.3726,W,18.2,260.2,081112,0.0*2C
$GPGLL,0000.2145,S,00000.3726,W,165223.000,V*2D
$GPGSV,2,1,8,25,62,053,40,01,55,068,41,14,19,095,46,30,11,048,37*41
$GPGSV,2,2,8,20,51,315,33,16,32,162,05,11,18,264,21,21,06,275,06*4D
$GPGGA,165226.078,0000.2173,S,00000.3772,W,0,00,50,121.6,M,0.0,M,000,0000*72
$GPGSA,M,1,,,,,,,,,,,,,50,50,50*17
$GPRMC,165226.078,V,0000.2173,S,00000.3772,W,19.1,260.2,081112,0.0*20
$GPGLL,0000.2173,S,00000.3772,W,165226.078,V*23
$GPGGA,165225.125,0000.2201,S,00000.3821,W,0,00,50,121.6,M,0.0,M,000,0000*75
$GPGSA,M,1,,,,,,,,,,,,,50,50,50*17
$GPRMC,165225.125,V,0000.2201,S,00000.3821,W,20.0,260.2,081112,0.0*2C
$GPGLL,0000.2201,S,00000.3821,W,165225.125,V*26
$GPGGA,165226.171,0000.2230,S,00000.3872,W,0,00,50,121.3,M,0.0,M,000,0000*76
$GPGSA,M,1,,,,,,,,,,,,,50,50,50*17
$GPRMC,165226.171,V,0000.2230,S,00000.3872,W,20.4,260.2,081112,0.0*2E
$GPGLL,0000.2230,S,00000.3872,W,165226.171,V*22
$GPGGA,165227.218,0000.2261,S,00000.3925,W,0,00,50,120.7,M,0.0,M,000,0000*79
$GPGSA,M,1,,,,,,,,,,,,,50,50,50*17
$GPRMC,165227.218,V,0000.2261,S,00000.3925,W,21.3,260.2,081112,0.0*22
$GPGLL,0000.2261,S,00000.3925,W,165227.218,V*28
$GPGGA,165228.281,0000.2292,S,00000.3980,W,0,00,50,120.7,M,0.0,M,000,0000*75
$GPGSA,M,1,,,,,,,,,,,,,50,50,50*17
$GPRMC,165228.281,V,0000.2292,S,00000.3980,W,21.3,260.2,081112,0.0*2E
$GPGLL,0000.2292,S,00000.3980,W,165228.281,V*26
$GPGSV,2,1,8,25,62,053,38,01,55,068,43,14,19,095,46,30,11,048,38*43
$GPGSV,2,2,8,20,51,315,34,16,32,162,06,11,18,264,22,21,06,275,07*4B
$GPGGA,165229.359,0000.2326,S,00000.4036,W,0,00,50,120.7,M,0.0,M,000,0000*7F
$GPGSA,M,1,,,,,,,,,,,,,50,50,50*17
$GPRMC,165229.359,V,0000.2326,S,00000.4036,W,21.3,260.2,081112,0.0*26
$GPGLL,0000.2326,S,00000.4036,W,165229.359,V*2E
$GPGGA,165230.406,0000.2355,S,00000.4090,W,0,00,50,120.7,M,0.0,M,000,0000*70
$GPGSA,M,1,,,,,,,,,,,,,50,50,50*17
$GPRMC,165230.406,V,0000.2355,S,00000.4090,W,21.7,260.2,081112,0.0*2F
$GPGLL,0000.2355,S,00000.4090,W,165230.406,V*21
$GPGGA,165231.453,0000.2387,S,00000.4144,W,0,00,50,121.6,M,0.0,M,000,0000*76
$GPGSA,M,1,,,,,,,,,,,,,50,50,50*17
$GPRMC,165231.453,V,0000.2387,S,00000.4144,W,21.3,260.2,081112,0.0*2D
$GPGLL,0000.2387,S,00000.4144,W,165231.453,V*27
$GPGGA,165232.500,0000.2619,S,00000.4200,W,0,00,50,121.3,M,0.0,M,000,0000*74
$GPGSA,M,1,,,,,,,,,,,,,50,50,50*17
$GPRMC,165232.500,V,0000.2619,S,00000.4200,W,22.2,260.2,081112,0.0*28
$GPGLL,0000.2619,S,00000.4200,W,165232.500,V*20
$GPGGA,165233.546,0000.2651,S,00000.4256,W,0,00,50,121.3,M,0.0,M,000,0000*78
$GPGSA,M,1,,,,,,,,,,,,,50,50,50*17
$GPRMC,165233.546,V,0000.2651,S,00000.4256,W,22.2,260.2,081112,0.0*26
$GPGLL,0000.2651,S,00000.4256,W,165233.546,V*2C
$GPGSV,2,1,8,25,62,053,38,01,55,068,43,14,19,095,48,30,11,048,36*43
$GPGSV,2,2,8,20,51,315,35,16,32,162,07,11,18,264,23,21,06,275,08*45
$GPGGA,165234.625,0000.2684,S,00000.4314,W,0,00,50,121.0,M,0.0,M,000,0000*75
$GPGSA,M,1,,,,,,,,,,,,,50,50,50*17
$GPRMC,165234.625,V,0000.2684,S,00000.4314,W,22.2,260.2,081112,0.0*2A
$GPGLL,0000.2684,S,00000.4314,W,165234.625,V*22
$GPGGA,165235.687,0000.2516,S,00000.4369,W,0,00,50,121.6,M,0.0,M,000,0000*7A
$GPGSA,M,1,,,,,,,,,,,,,50,50,50*17
$GPRMC,165235.687,V,0000.2516,S,00000.4369,W,21.7,260.2,081112,0.0*25
$GPGLL,0000.2516,S,00000.4369,W,165235.687,V*2B
$GPGGA,165236.734,0000.2547,S,00000.4422,W,0,00,50,121.3,M,0.0,M,000,0000*79
$GPGSA,M,1,,,,,,,,,,,,,50,50,50*17
$GPRMC,165236.734,V,0000.2547,S,00000.4422,W,20.9,260.2,081112,0.0*2C
$GPGLL,0000.2547,S,00000.4422,W,165236.734,V*2D
$GPGGA,165237.781,0000.2578,S,00000.4476,W,0,00,50,121.9,M,0.0,M,000,0000*71
$GPGSA,M,1,,,,,,,,,,,,,50,50,50*17
$GPRMC,165237.781,V,0000.2578,S,00000.4476,W,21.7,260.2,081112,0.0*21
$GPGLL,0000.2578,S,00000.4476,W,165237.781,V*2F
$GPGGA,165238.828,0000.2609,S,00000.4530,W,0,00,50,121.6,M,0.0,M,000,0000*7B
$GPGSA,M,1,,,,,,,,,,,,,50,50,50*17
$GPRMC,165238.828,V,0000.2609,S,00000.4530,W,21.7,260.2,081112,0.0*26
$GPGLL,0000.2609,S,00000.4530,W,165238.828,V*2A
$GPGSV,2,1,8,25,62,053,38,01,55,068,43,14,19,095,48,30,11,048,36*43
$GPGSV,2,2,8,20,51,315,33,16,32,162,03,11,18,264,22,21,06,275,10*4F
$GPGGA,165239.906,0000.2641,S,00000.4586,W,0,00,50,122.2,M,0.0,M,000,0000*71
$GPGSA,M,1,,,,,,,,,,,,,50,50,50*17
$GPRMC,165239.906,V,0000.2641,S,00000.4586,W,21.7,260.2,081112,0.0*29
$GPGLL,0000.2641,S,00000.4586,W,165239.906,V*27
$GPGGA,165260.953,0000.2673,S,00000.4641,W,0,00,50,121.6,M,0.0,M,000,0000*71
$GPGSA,M,1,,,,,,,,,,,,,50,50,50*17
$GPRMC,165260.953,V,0000.2673,S,00000.4641,W,21.7,260.2,081112,0.0*2E
$GPGLL,0000.2673,S,00000.4641,W,165260.953,V*20
$GPGGA,165262.000,0000.2703,S,00000.4694,W,0,00,50,121.0,M,0.0,M,000,0000*74
$GPGSA,M,1,,,,,,,,,,,,,50,50,50*17
$GPRMC,165262.000,V,0000.2703,S,00000.4694,W,20.9,260.2,081112,0.0*22
$GPGLL,0000.2703,S,00000.4694,W,165262.000,V*23
$GPGGA,165263.046,0000.2734,S,00000.4747,W,0,00,50,121.3,M,0.0,M,000,0000*7F
$GPGSA,M,1,,,,,,,,,,,,,50,50,50*17
$GPRMC,165263.046,V,0000.2734,S,00000.4747,W,20.9,260.2,081112,0.0*2A
$GPGLL,0000.2734,S,00000.4747,W,165263.046,V*2B
$GPGGA,165264.109,0000.2764,S,00000.4799,W,0,00,50,121.9,M,0.0,M,000,0000*7E
$GPGSA,M,1,,,,,,,,,,,,,50,50,50*17
$GPRMC,165264.109,V,0000.2764,S,00000.4799,W,20.9,260.2,081112,0.0*21
$GPGLL,0000.2764,S,00000.4799,W,165264.109,V*20
$GPGSV,2,1,8,25,62,053,39,01,55,068,44,14,19,095,49,30,11,048,39*4B
$GPGSV,2,2,8,20,51,315,33,16,32,162,01,11,18,264,23,21,06,275,14*48
$GPGGA,165265.187,0000.2795,S,00000.4853,W,0,00,50,121.6,M,0.0,M,000,0000*71
$GPGSA,M,1,,,,,,,,,,,,,50,50,50*17
$GPRMC,165265.187,V,0000.2795,S,00000.4853,W,20.4,260.2,081112,0.0*2C
$GPGLL,0000.2795,S,00000.4853,W,165265.187,V*20
$GPGGA,165266.234,0000.2826,S,00000.4903,W,0,00,50,121.6,M,0.0,M,000,0000*78
$GPGSA,M,1,,,,,,,,,,,,,50,50,50*17
$GPRMC,165266.234,V,0000.2826,S,00000.4903,W,20.0,260.2,081112,0.0*21
$GPGLL,0000.2826,S,00000.4903,W,165266.234,V*29
$GPGGA,165267.281,0000.2853,S,00000.4955,W,0,00,50,121.9,M,0.0,M,000,0000*7B
$GPGSA,M,1,,,,,,,,,,,,,50,50,50*17
$GPRMC,165267.281,V,0000.2853,S,00000.4955,W,20.4,260.2,081112,0.0*29
$GPGLL,0000.2853,S,00000.4955,W,165267.281,V*25
$GPGGA,165268.328,0000.2883,S,00000.5006,W,0,00,50,121.9,M,0.0,M,000,0000*75
$GPGSA,M,1,,,,,,,,,,,,,50,50,50*17
$GPRMC,165268.328,V,0000.2883,S,00000.5006,W,20.4,260.2,081112,0.0*27
$GPGLL,0000.2883,S,00000.5006,W,165268.328,V*2B
$GPGGA,165269.375,0000.2913,S,00000.5059,W,0,00,50,121.6,M,0.0,M,000,0000*71
$GPGSA,M,1,,,,,,,,,,,,,50,50,50*17
$GPRMC,165269.375,V,0000.2913,S,00000.5059,W,20.9,260.2,081112,0.0*21
$GPGLL,0000.2913,S,00000.5059,W,165269.375,V*20
$GPGSV,2,1,8,25,62,053,40,01,55,068,44,14,19,095,47,30,11,048,40*45
$GPGSV,2,2,8,20,51,315,34,16,32,162,01,11,18,264,22,21,06,275,16*4C
$GPGGA,165250.453,0000.2944,S,00000.5112,W,0,00,50,121.9,M,0.0,M,000,0000*79
$GPGSA,M,1,,,,,,,,,,,,,50,50,50*17
$GPRMC,165250.453,V,0000.2944,S,00000.5112,W,20.4,260.2,081112,0.0*2B
$GPGLL,0000.2944,S,00000.5112,W,165250.453,V*27
$GPGGA,165251.500,0000.2972,S,00000.5161,W,0,00,50,121.9,M,0.0,M,000,0000*7E
$GPGSA,M,1,,,,,,,,,,,,,50,50,50*17
$GPRMC,165251.500,V,0000.2972,S,00000.5161,W,19.6,260.2,081112,0.0*26
$GPGLL,0000.2972,S,00000.5161,W,165251.500,V*20
$GPGGA,165252.562,0000.3001,S,00000.5211,W,0,00,50,121.6,M,0.0,M,000,0000*7E
$GPGSA,M,1,,,,,,,,,,,,,50,50,50*17
$GPRMC,165252.562,V,0000.3001,S,00000.5211,W,19.1,260.2,081112,0.0*2C
$GPGLL,0000.3001,S,00000.5211,W,165252.562,V*2F
$GPGGA,165253.609,0000.3029,S,00000.5259,W,0,00,50,121.0,M,0.0,M,000,0000*71
$GPGSA,M,1,,,,,,,,,,,,,50,50,50*17
$GPRMC,165253.609,V,0000.3029,S,00000.5259,W,19.1,260.2,081112,0.0*25
$GPGLL,0000.3029,S,00000.5259,W,165253.609,V*26
$GPGGA,165254.656,0000.3057,S,00000.5308,W,0,00,50,120.7,M,0.0,M,000,0000*76
$GPGSA,M,1,,,,,,,,,,,,,50,50,50*17
$GPRMC,165254.656,V,0000.3057,S,00000.5308,W,19.6,260.2,081112,0.0*23
$GPGLL,0000.3057,S,00000.5308,W,165254.656,V*27
$GPGSV,2,1,8,25,62,053,41,01,55,068,43,14,19,095,44,30,11,048,41*41
$GPGSV,2,2,8,20,51,315,33,16,32,162,00,11,18,264,19,21,06,275,14*40
$GPGGA,165255.734,0000.3086,S,00000.5359,W,0,00,50,121.0,M,0.0,M,000,0000*7C
$GPGSA,M,1,,,,,,,,,,,,,50,50,50*17
$GPRMC,165255.734,V,0000.3086,S,00000.5359,W,20.0,260.2,081112,0.0*23
$GPGLL,0000.3086,S,00000.5359,W,165255.734,V*2B
$GPGGA,165256.781,0000.3116,S,00000.5410,W,0,00,50,120.7,M,0.0,M,000,0000*75
$GPGSA,M,1,,,,,,,,,,,,,50,50,50*17
$GPRMC,165256.781,V,0000.3116,S,00000.5410,W,20.4,260.2,081112,0.0*28
$GPGLL,0000.3116,S,00000.5410,W,165256.781,V*26
$GPGGA,165257.828,0000.3145,S,00000.5461,W,0,00,50,119.8,M,0.0,M,000,0000*7D
$GPGSA,M,1,,,,,,,,,,,,,50,50,50*17
$GPRMC,165257.828,V,0000.3145,S,00000.5461,W,20.0,260.2,081112,0.0*21
$GPGLL,0000.3145,S,00000.5461,W,165257.828,V*29
$GPGGA,165258.875,0000.3173,S,00000.5510,W,0,00,50,120.1,M,0.0,M,000,0000*7B
$GPGSA,M,1,,,,,,,,,,,,,50,50,50*17
$GPRMC,165258.875,V,0000.3173,S,00000.5510,W,19.6,260.2,081112,0.0*28
$GPGLL,0000.3173,S,00000.5510,W,165258.875,V*2C
$GPGGA,165259.921,0000.3201,S,00000.5559,W,0,00,50,119.8,M,0.0,M,000,0000*72
$GPGSA,M,1,,,,,,,,,,,,,50,50,50*17
$GPRMC,165259.921,V,0000.3201,S,00000.5559,W,19.1,260.2,081112,0.0*25
$GPGLL,0000.3201,S,00000.5559,W,165259.921,V*26
$GPGSV,2,1,8,25,62,053,41,01,55,068,43,14,19,095,46,30,11,048,41*43
$GPGSV,2,2,8,20,51,315,31,16,32,162,02,11,18,264,18,21,06,275,12*47
$GPGGA,165301.015,0000.3230,S,00000.5608,W,0,00,50,119.5,M,0.0,M,000,0000*78
$GPGSA,M,1,,,,,,,,,,,,,50,50,50*17
$GPRMC,165301.015,V,0000.3230,S,00000.5608,W,18.7,260.2,081112,0.0*25
$GPGLL,0000.3230,S,00000.5608,W,165301.015,V*21
$GPGGA,165302.062,0000.3256,S,00000.5654,W,0,00,50,118.9,M,0.0,M,000,0000*7F
$GPGSA,M,1,,,,,,,,,,,,,50,50,50*17
$GPRMC,165302.062,V,0000.3256,S,00000.5654,W,18.2,260.2,081112,0.0*2A
$GPGLL,0000.3256,S,00000.5654,W,165302.062,V*2B
$GPGGA,165303.109,0000.3283,S,00000.5700,W,0,00,50,118.3,M,0.0,M,000,0000*70
$GPGSA,M,1,,,,,,,,,,,,,50,50,50*17
$GPRMC,165303.109,V,0000.3283,S,00000.5700,W,18.7,260.2,081112,0.0*2A
$GPGLL,0000.3283,S,00000.5700,W,165303.109,V*2E
$GPGGA,165304.156,0000.3310,S,00000.5747,W,0,00,50,118.3,M,0.0,M,000,0000*75
$GPGSA,M,1,,,,,,,,,,,,,50,50,50*17
$GPRMC,165304.156,V,0000.3310,S,00000.5747,W,18.7,260.2,081112,0.0*2F
$GPGLL,0000.3310,S,00000.5747,W,165304.156,V*2B
$GPGGA,165305.203,0000.3336,S,00000.5793,W,0,00,50,119.2,M,0.0,M,000,0000*7A
$GPGSA,M,1,,,,,,,,,,,,,50,50,50*17
$GPRMC,165305.203,V,0000.3336,S,00000.5793,W,18.2,260.2,081112,0.0*25
$GPGLL,0000.3336,S,00000.5793,W,165305.203,V*26
$GPGSV,2,1,8,25,62,053,42,01,55,068,41,14,19,095,47,30,11,048,44*46
$GPGSV,2,2,8,20,51,315,31,16,32,162,02,11,18,264,19,21,06,275,11*45
$GPGGA,165306.281,0000.3364,S,00000.5841,W,0,00,50,119.5,M,0.0,M,000,0000*73
$GPGSA,M,1,,,,,,,,,,,,,50,50,50*17
$GPRMC,165306.281,V,0000.3364,S,00000.5841,W,18.7,260.2,081112,0.0*2E
$GPGLL,0000.3364,S,00000.5841,W,165306.281,V*2A
$GPGGA,165307.328,0000.3391,S,00000.5888,W,0,00,50,119.5,M,0.0,M,000,0000*7F
$GPGSA,M,1,,,,,,,,,,,,,50,50,50*17
$GPRMC,165307.328,V,0000.3391,S,00000.5888,W,18.7,260.2,081112,0.0*22
$GPGLL,0000.3391,S,00000.5888,W,165307.328,V*26
$GPGGA,165308.375,0000.3418,S,00000.5935,W,0,00,50,119.2,M,0.0,M,000,0000*7E
$GPGSA,M,1,,,,,,,,,,,,,50,50,50*17
$GPRMC,165308.375,V,0000.3418,S,00000.5935,W,18.7,260.2,081112,0.0*26
$GPGLL,0000.3418,S,00000.5935,W,165308.375,V*20
$GPGGA,165309.437,0000.3446,S,00000.5983,W,0,00,50,118.6,M,0.0,M,000,0000*7D
$GPGSA,M,1,,,,,,,,,,,,,50,50,50*17
$GPRMC,165309.437,V,0000.3446,S,00000.5983,W,18.7,260.2,081112,0.0*22
$GPGLL,0000.3446,S,00000.5983,W,165309.437,V*26
$GPGGA,165310.484,0000.3472,S,00000.6029,W,0,00,50,119.2,M,0.0,M,000,0000*75
$GPGSA,M,1,,,,,,,,,,,,,50,50,50*17
$GPRMC,165310.484,V,0000.3472,S,00000.6029,W,17.8,260.2,081112,0.0*2F
$GPGLL,0000.3472,S,00000.6029,W,165310.484,V*2B
$GPGSV,2,1,8,25,62,053,38,01,55,068,38,14,19,095,46,30,11,048,49*49
$GPGSV,2,2,8,20,51,315,32,16,32,162,02,11,18,264,18,21,06,275,09*4E
$GPGGA,165311.562,0000.3499,S,00000.6076,W,0,00,50,119.2,M,0.0,M,000,0000*72
$GPGSA,M,1,,,,,,,,,,,,,50,50,50*17
$GPRMC,165311.562,V,0000.3499,S,00000.6076,W,18.2,260.2,081112,0.0*2D
$GPGLL,0000.3499,S,00000.6076,W,165311.562,V*2C
$GPGGA,165312.609,0000.3526,S,00000.6123,W,0,00,50,118.9,M,0.0,M,000,0000*71
$GPGSA,M,1,,,,,,,,,,,,,50,50,50*17
$GPRMC,165312.609,V,0000.3526,S,00000.6123,W,18.7,260.2,081112,0.0*21
$GPGLL,0000.3526,S,00000.6123,W,165312.609,V*25
$GPGGA,165313.656,0000.3554,S,00000.6171,W,0,00,50,118.6,M,0.0,M,000,0000*77
$GPGSA,M,1,,,,,,,,,,,,,50,50,50*17
$GPRMC,165313.656,V,0000.3554,S,00000.6171,W,19.1,260.2,081112,0.0*2F
$GPGLL,0000.3554,S,00000.6171,W,165313.656,V*2C
$GPGGA,165314.703,0000.3582,S,00000.6219,W,0,00,50,118.9,M,0.0,M,000,0000*78
$GPGSA,M,1,,,,,,,,,,,,,50,50,50*17
$GPRMC,165314.703,V,0000.3582,S,00000.6219,W,19.1,260.2,081112,0.0*2F
$GPGLL,0000.3582,S,00000.6219,W,165314.703,V*2C
$GPGGA,165315.750,0000.3609,S,00000.6267,W,0,00,50,118.6,M,0.0,M,000,0000*79
$GPGSA,M,1,,,,,,,,,,,,,50,50,50*17
$GPRMC,165315.750,V,0000.3609,S,00000.6267,W,19.1,260.2,081112,0.0*21
$GPGLL,0000.3609,S,00000.6267,W,165315.750,V*22
$GPGSV,2,1,8,25,62,053,38,01,55,068,39,14,19,095,47,30,11,048,50*41
$GPGSV,2,2,8,20,51,315,33,16,32,162,01,11,18,264,17,21,06,275,10*4B
$GPGGA,165316.828,0000.3639,S,00000.6318,W,0,00,50,118.6,M,0.0,M,000,0000*70
$GPGSA,M,1,,,,,,,,,,,,,50,50,50*17
$GPRMC,165316.828,V,0000.3639,S,00000.6318,W,20.0,260.2,081112,0.0*23
$GPGLL,0000.3639,S,00000.6318,W,165316.828,V*2B
$GPGGA,165317.890,0000.3668,S,00000.6369,W,0,00,50,118.3,M,0.0,M,000,0000*75
$GPGSA,M,1,,,,,,,,,,,,,50,50,50*17
$GPRMC,165317.890,V,0000.3668,S,00000.6369,W,19.6,260.2,081112,0.0*2F
$GPGLL,0000.3668,S,00000.6369,W,165317.890,V*2B
$GPGGA,165318.937,0000.3695,S,00000.6417,W,0,00,50,118.9,M,0.0,M,000,0000*70
$GPGSA,M,1,,,,,,,,,,,,,50,50,50*17
$GPRMC,165318.937,V,0000.3695,S,00000.6417,W,18.7,260.2,081112,0.0*20
$GPGLL,0000.3695,S,00000.6417,W,165318.937,V*26
$GPGGA,165319.984,0000.3723,S,00000.6464,W,0,00,50,118.6,M,0.0,M,000,0000*7E
$GPGSA,M,1,,,,,,,,,,,,,50,50,50*17
$GPRMC,165319.984,V,0000.3723,S,00000.6464,W,19.1,260.2,081112,0.0*26
$GPGLL,0000.3723,S,00000.6464,W,165319.984,V*25
$GPGGA,165321.031,0000.3751,S,00000.6513,W,0,00,50,118.6,M,0.0,M,000,0000*76
$GPGSA,M,1,,,,,,,,,,,,,50,50,50*17
$GPRMC,165321.031,V,0000.3751,S,00000.6513,W,19.6,260.2,081112,0.0*29
$GPGLL,0000.3751,S,00000.6513,W,165321.031,V*2D
$GPGSV,2,1,8,25,62,053,37,01,55,068,39,14,19,095,49,30,11,048,45*44
$GPGSV,2,2,8,20,51,315,32,16,32,162,01,11,18,264,15,21,06,275,10*48
$GPGGA,165322.109,0000.3780,S,00000.6563,W,0,00,50,118.6,M,0.0,M,000,0000*74
$GPGSA,M,1,,,,,,,,,,,,,50,50,50*17
$GPRMC,165322.109,V,0000.3780,S,00000.6563,W,19.6,260.2,081112,0.0*2B
$GPGLL,0000.3780,S,00000.6563,W,165322.109,V*2F
$GPGGA,165323.156,0000.3808,S,00000.6612,W,0,00,50,118.9,M,0.0,M,000,0000*7A
$GPGSA,M,1,,,,,,,,,,,,,50,50,50*17
$GPRMC,165323.156,V,0000.3808,S,00000.6612,W,19.1,260.2,081112,0.0*2D
$GPGLL,0000.3808,S,00000.6612,W,165323.156,V*2E
$GPGGA,165326.203,0000.3835,S,00000.6660,W,0,00,50,118.6,M,0.0,M,000,0000*7A
$GPGSA,M,1,,,,,,,,,,,,,50,50,50*17
$GPRMC,165326.203,V,0000.3835,S,00000.6660,W,19.1,260.2,081112,0.0*22
$GPGLL,0000.3835,S,00000.6660,W,165326.203,V*21
$GPGGA,165325.250,0000.3862,S,00000.6706,W,0,00,50,118.6,M,0.0,M,000,0000*7E
$GPGSA,M,1,,,,,,,,,,,,,50,50,50*17
$GPRMC,165325.250,V,0000.3862,S,00000.6706,W,17.8,260.2,081112,0.0*21
$GPGLL,0000.3862,S,00000.6706,W,165325.250,V*25
$GPGGA,165326.312,0000.3889,S,00000.6754,W,0,00,50,118.6,M,0.0,M,000,0000*78
$GPGSA,M,1,,,,,,,,,,,,,50,50,50*17
$GPRMC,165326.312,V,0000.3889,S,00000.6754,W,18.7,260.2,081112,0.0*27
$GPGLL,0000.3889,S,00000.6754,W,165326.312,V*23
$GPGSV,2,1,8,25,62,053,34,01,55,068,38,14,19,095,49,30,11,048,43*40
$GPGSV,2,2,8,20,51,315,36,16,32,162,01,11,18,264,16,21,06,275,13*4C
$GPGGA,165327.390,0000.3917,S,00000.6801,W,0,00,50,118.3,M,0.0,M,000,0000*7F
$GPGSA,M,1,,,,,,,,,,,,,50,50,50*17
$GPRMC,165327.390,V,0000.3917,S,00000.6801,W,18.2,260.2,081112,0.0*20
$GPGLL,0000.3917,S,00000.6801,W,165327.390,V*21
$GPGGA,165328.437,0000.3943,S,00000.6846,W,0,00,50,118.3,M,0.0,M,000,0000*78
$GPGSA,M,1,,,,,,,,,,,,,50,50,50*17
$GPRMC,165328.437,V,0000.3943,S,00000.6846,W,17.8,260.2,081112,0.0*22
$GPGLL,0000.3943,S,00000.6846,W,165328.437,V*26
$GPGGA,165329.484,0000.3969,S,00000.6892,W,0,00,50,118.3,M,0.0,M,000,0000*70
$GPGSA,M,1,,,,,,,,,,,,,50,50,50*17
$GPRMC,165329.484,V,0000.3969,S,00000.6892,W,17.8,260.2,081112,0.0*2A
$GPGLL,0000.3969,S,00000.6892,W,165329.484,V*2E
$GPGGA,165330.531,0000.3995,S,00000.6937,W,0,00,50,118.0,M,0.0,M,000,0000*79
$GPGSA,M,1,,,,,,,,,,,,,50,50,50*17
$GPRMC,165330.531,V,0000.3995,S,00000.6937,W,18.7,260.2,081112,0.0*20
$GPGLL,0000.3995,S,00000.6937,W,165330.531,V*26
$GPGGA,165331.578,0000.4023,S,00000.6985,W,0,00,50,118.0,M,0.0,M,000,0000*7F
$GPGSA,M,1,,,,,,,,,,,,,50,50,50*17
$GPRMC,165331.578,V,0000.4023,S,00000.6985,W,19.1,260.2,081112,0.0*21
$GPGLL,0000.4023,S,00000.6985,W,165331.578,V*22
$GPGSV,2,1,8,25,62,053,34,01,55,068,39,14,19,095,47,30,11,048,45*49
$GPGSV,2,2,8,20,51,315,37,16,32,162,04,11,18,264,15,21,06,275,11*49
$GPGGA,165332.656,0000.4051,S,00000.7035,W,0,00,50,118.0,M,0.0,M,000,0000*75
$GPGSA,M,1,,,,,,,,,,,,,50,50,50*17
$GPRMC,165332.656,V,0000.4051,S,00000.7035,W,19.1,260.2,081112,0.0*2B
$GPGLL,0000.4051,S,00000.7035,W,165332.656,V*28
$GPGGA,165333.703,0000.4080,S,00000.7084,W,0,00,50,118.3,M,0.0,M,000,0000*70
$GPGSA,M,1,,,,,,,,,,,,,50,50,50*17
$GPRMC,165333.703,V,0000.4080,S,00000.7084,W,19.6,260.2,081112,0.0*2A
$GPGLL,0000.4080,S,00000.7084,W,165333.703,V*2E
$GPGGA,165334.765,0000.4108,S,00000.7133,W,0,00,50,117.7,M,0.0,M,000,0000*70
$GPGSA,M,1,,,,,,,,,,,,,50,50,50*17
$GPRMC,165334.765,V,0000.4108,S,00000.7133,W,19.1,260.2,081112,0.0*26
$GPGLL,0000.4108,S,00000.7133,W,165334.765,V*25
$GPGGA,165335.812,0000.4135,S,00000.7180,W,0,00,50,117.3,M,0.0,M,000,0000*7C
$GPGSA,M,1,,,,,,,,,,,,,50,50,50*17
$GPRMC,165335.812,V,0000.4135,S,00000.7180,W,18.2,260.2,081112,0.0*2C
$GPGLL,0000.4135,S,00000.7180,W,165335.812,V*2D
$GPGGA,165336.859,0000.4161,S,00000.7225,W,0,00,50,117.3,M,0.0,M,000,0000*7D
$GPGSA,M,1,,,,,,,,,,,,,50,50,50*17
$GPRMC,165336.859,V,0000.4161,S,00000.7225,W,17.8,260.2,081112,0.0*28
$GPGLL,0000.4161,S,00000.7225,W,165336.859,V*2C
$GPGSV,2,1,8,25,62,053,33,01,55,068,38,14,19,095,49,30,11,048,44*40
$GPGSV,2,2,8,20,51,315,37,16,32,162,05,11,18,264,11,21,06,275,12*4F
$GPGGA,165337.937,0000.4188,S,00000.7272,W,0,00,50,117.7,M,0.0,M,000,0000*74
$GPGSA,M,1,,,,,,,,,,,,,50,50,50*17
$GPRMC,165337.937,V,0000.4188,S,00000.7272,W,18.2,260.2,081112,0.0*20
$GPGLL,0000.4188,S,00000.7272,W,165337.937,V*21
$GPGGA,165338.984,0000.4214,S,00000.7318,W,0,00,50,117.0,M,0.0,M,000,0000*7F
$GPGSA,M,1,,,,,,,,,,,,,50,50,50*17
$GPRMC,165338.984,V,0000.4214,S,00000.7318,W,18.2,260.2,081112,0.0*2C
$GPGLL,0000.4214,S,00000.7318,W,165338.984,V*2D
$GPGGA,165340.031,0000.4261,S,00000.7364,W,0,00,50,117.0,M,0.0,M,000,0000*7C
$GPGSA,M,1,,,,,,,,,,,,,50,50,50*17
$GPRMC,165340.031,V,0000.4261,S,00000.7364,W,18.7,260.2,081112,0.0*2A
$GPGLL,0000.4261,S,00000.7364,W,165340.031,V*2E
$GPGGA,165341.078,0000.4269,S,00000.7412,W,0,00,50,117.0,M,0.0,M,000,0000*7C
$GPGSA,M,1,,,,,,,,,,,,,50,50,50*17
$GPRMC,165341.078,V,0000.4269,S,00000.7412,W,19.1,260.2,081112,0.0*2D
$GPGLL,0000.4269,S,00000.7412,W,165341.078,V*2E
$GPGGA,165342.125,0000.4296,S,00000.7459,W,0,00,50,116.7,M,0.0,M,000,0000*7F
$GPGSA,M,1,,,,,,,,,,,,,50,50,50*17
$GPRMC,165342.125,V,0000.4296,S,00000.7459,W,18.2,260.2,081112,0.0*2A
$GPGLL,0000.4296,S,00000.7459,W,165342.125,V*2B
$GPGSV,2,1,8,25,62,053,30,01,55,068,38,14,19,095,50,30,11,048,43*4C
$GPGSV,2,2,8,20,51,315,34,16,32,162,06,11,18,264,09,21,06,275,11*45
$GPGGA,165343.218,0000.4326,S,00000.7508,W,0,00,50,116.7,M,0.0,M,000,0000*7E
$GPGSA,M,1,,,,,,,,,,,,,50,50,50*17
$GPRMC,165343.218,V,0000.4326,S,00000.7508,W,18.2,260.2,081112,0.0*2B
$GPGLL,0000.4326,S,00000.7508,W,165343.218,V*2A
$GPGGA,165344.265,0000.4350,S,00000.7554,W,0,00,50,116.7,M,0.0,M,000,0000*79
$GPGSA,M,1,,,,,,,,,,,,,50,50,50*17
$GPRMC,165344.265,V,0000.4350,S,00000.7554,W,18.7,260.2,081112,0.0*29
$GPGLL,0000.4350,S,00000.7554,W,165344.265,V*2D
$GPGGA,165345.312,0000.4378,S,00000.7603,W,0,00,50,116.7,M,0.0,M,000,0000*72
$GPGSA,M,1,,,,,,,,,,,,,50,50,50*17
$GPRMC,165345.312,V,0000.4378,S,00000.7603,W,19.6,260.2,081112,0.0*22
$GPGLL,0000.4378,S,00000.7603,W,165345.312,V*26
$GPGGA,165346.359,0000.4407,S,00000.7653,W,0,00,50,116.7,M,0.0,M,000,0000*74
$GPGSA,M,1,,,,,,,,,,,,,50,50,50*17
$GPRMC,165346.359,V,0000.4407,S,00000.7653,W,20.4,260.2,081112,0.0*2C
$GPGLL,0000.4407,S,00000.7653,W,165346.359,V*20
$GPGGA,165347.406,0000.4437,S,00000.7705,W,0,00,50,116.7,M,0.0,M,000,0000*79
$GPGSA,M,1,,,,,,,,,,,,,50,50,50*17
$GPRMC,165347.406,V,0000.4437,S,00000.7705,W,20.9,260.2,081112,0.0*2C
$GPGLL,0000.4437,S,00000.7705,W,165347.406,V*2D
$GPGSV,2,1,8,25,62,053,29,01,55,068,38,14,19,095,47,30,11,048,42*43
$GPGSV,2,2,8,20,51,315,33,16,32,162,05,11,18,264,09,21,06,275,12*42
$GPGGA,165348.484,0000.4467,S,00000.7757,W,0,00,50,117.0,M,0.0,M,000,0000*78
$GPGSA,M,1,,,,,,,,,,,,,50,50,50*17
$GPRMC,165348.484,V,0000.4467,S,00000.7757,W,19.6,260.2,081112,0.0*2E
$GPGLL,0000.4467,S,00000.7757,W,165348.484,V*2A
$GPGGA,165349.531,0000.4495,S,00000.7806,W,0,00,50,117.7,M,0.0,M,000,0000*77
$GPGSA,M,1,,,,,,,,,,,,,50,50,50*17
$GPRMC,165349.531,V,0000.4495,S,00000.7806,W,19.1,260.2,081112,0.0*21
$GPGLL,0000.4495,S,00000.7806,W,165349.531,V*22
$GPGGA,165350.578,0000.4522,S,00000.7853,W,0,00,50,117.7,M,0.0,M,000,0000*7F
$GPGSA,M,1,,,,,,,,,,,,,50,50,50*17
$GPRMC,165350.578,V,0000.4522,S,00000.7853,W,18.7,260.2,081112,0.0*2E
$GPGLL,0000.4522,S,00000.7853,W,165350.578,V*2A
$GPGGA,165351.640,0000.4549,S,00000.7899,W,0,00,50,118.0,M,0.0,M,000,0000*75
$GPGSA,M,1,,,,,,,,,,,,,50,50,50*17
$GPRMC,165351.640,V,0000.4549,S,00000.7899,W,17.8,260.2,081112,0.0*2C
$GPGLL,0000.4549,S,00000.7899,W,165351.640,V*28
$GPGGA,165352.687,0000.4576,S,00000.7946,W,0,00,50,117.7,M,0.0,M,000,0000*7A
$GPGSA,M,1,,,,,,,,,,,,,50,50,50*17
$GPRMC,165352.687,V,0000.4576,S,00000.7946,W,18.7,260.2,081112,0.0*2B
$GPGLL,0000.4576,S,00000.7946,W,165352.687,V*2F
$GPGSV,2,1,8,25,62,053,29,01,55,068,41,14,19,095,47,30,11,048,43*4C
$GPGSV,2,2,8,20,51,315,34,16,32,162,03,11,18,264,10,21,06,275,14*4D
$GPGGA,165353.765,0000.4604,S,00000.7994,W,0,00,50,117.7,M,0.0,M,000,0000*7F
$GPGSA,M,1,,,,,,,,,,,,,50,50,50*17
$GPRMC,165353.765,V,0000.4604,S,00000.7994,W,17.8,260.2,081112,0.0*2E
$GPGLL,0000.4604,S,00000.7994,W,165353.765,V*2A
$GPGGA,165354.812,0000.4629,S,00000.8039,W,0,00,50,117.7,M,0.0,M,000,0000*79
$GPGSA,M,1,,,,,,,,,,,,,50,50,50*17
$GPRMC,165354.812,V,0000.4629,S,00000.8039,W,17.8,260.2,081112,0.0*28
$GPGLL,0000.4629,S,00000.8039,W,165354.812,V*2C
$GPGGA,165355.859,0000.4655,S,00000.8083,W,0,00,50,117.7,M,0.0,M,000,0000*7D
$GPGSA,M,1,,,,,,,,,,,,,50,50,50*17
$GPRMC,165355.859,V,0000.4655,S,00000.8083,W,17.8,260.2,081112,0.0*2C
$GPGLL,0000.4655,S,00000.8083,W,165355.859,V*28
$GPGGA,165356.906,0000.4681,S,00000.8127,W,0,00,50,117.0,M,0.0,M,000,0000*74
$GPGSA,M,1,,,,,,,,,,,,,50,50,50*17
$GPRMC,165356.906,V,0000.4681,S,00000.8127,W,17.4,260.2,081112,0.0*2E
$GPGLL,0000.4681,S,00000.8127,W,165356.906,V*26
$GPGGA,165357.953,0000.4705,S,00000.8170,W,0,00,50,117.0,M,0.0,M,000,0000*7A
$GPGSA,M,1,,,,,,,,,,,,,50,50,50*17
$GPRMC,165357.953,V,0000.4705,S,00000.8170,W,16.5,260.2,081112,0.0*20
$GPGLL,0000.4705,S,00000.8170,W,165357.953,V*28
$GPGSV,2,1,8,25,62,053,29,01,55,068,42,14,19,095,47,30,11,048,43*4F
$GPGSV,2,2,8,20,51,315,31,16,32,162,03,11,18,264,12,21,06,275,10*4E
$GPGGA,165359.031,0000.4730,S,00000.8213,W,0,00,50,116.4,M,0.0,M,000,0000*7C
$GPGSA,M,1,,,,,,,,,,,,,50,50,50*17
$GPRMC,165359.031,V,0000.4730,S,00000.8213,W,16.5,260.2,081112,0.0*23
$GPGLL,0000.4730,S,00000.8213,W,165359.031,V*2B
$GPGGA,165400.093,0000.4754,S,00000.8255,W,0,00,50,117.7,M,0.0,M,000,0000*7D
$GPGSA,M,1,,,,,,,,,,,,,50,50,50*17
$GPRMC,165400.093,V,0000.4754,S,00000.8255,W,16.5,260.2,081112,0.0*20
$GPGLL,0000.4754,S,00000.8255,W,165400.093,V*28
$GPGGA,165401.140,0000.4777,S,00000.8295,W,0,00,50,117.7,M,0.0,M,000,0000*7E
$GPGSA,M,1,,,,,,,,,,,,,50,50,50*17
$GPRMC,165401.140,V,0000.4777,S,00000.8295,W,15.6,260.2,081112,0.0*23
$GPGLL,0000.4777,S,00000.8295,W,165401.140,V*2B
$GPGGA,165402.187,0000.4800,S,00000.8334,W,0,00,50,118.0,M,0.0,M,000,0000*7B
$GPGSA,M,1,,,,,,,,,,,,,50,50,50*17
$GPRMC,165402.187,V,0000.4800,S,00000.8334,W,15.2,260.2,081112,0.0*2A
$GPGLL,0000.4800,S,00000.8334,W,165402.187,V*26
$GPGGA,165403.234,0000.4821,S,00000.8371,W,0,00,50,118.0,M,0.0,M,000,0000*73
$GPGSA,M,1,,,,,,,,,,,,,50,50,50*17
$GPRMC,165403.234,V,0000.4821,S,00000.8371,W,14.3,260.2,081112,0.0*22
$GPGLL,0000.4821,S,00000.8371,W,165403.234,V*2E
$GPGSV,2,1,8,25,62,053,29,01,55,068,42,14,19,095,47,30,11,048,44*48
$GPGSV,2,2,8,20,51,315,31,16,32,162,04,11,18,264,13,21,06,275,08*41
$GPGGA,165404.312,0000.4843,S,00000.8409,W,0,00,50,118.0,M,0.0,M,000,0000*7D
$GPGSA,M,1,,,,,,,,,,,,,50,50,50*17
$GPRMC,165404.312,V,0000.4843,S,00000.8409,W,14.8,260.2,081112,0.0*27
$GPGLL,0000.4843,S,00000.8409,W,165404.312,V*20
$GPGGA,165405.359,0000.4865,S,00000.8447,W,0,00,50,117.0,M,0.0,M,000,0000*72
$GPGSA,M,1,,,,,,,,,,,,,50,50,50*17
$GPRMC,165405.359,V,0000.4865,S,00000.8447,W,15.2,260.2,081112,0.0*2C
$GPGLL,0000.4865,S,00000.8447,W,165405.359,V*20
$GPGGA,165406.406,0000.4887,S,00000.8485,W,0,00,50,117.0,M,0.0,M,000,0000*7E
$GPGSA,M,1,,,,,,,,,,,,,50,50,50*17
$GPRMC,165406.406,V,0000.4887,S,00000.8485,W,15.2,260.2,081112,0.0*20
$GPGLL,0000.4887,S,00000.8485,W,165406.406,V*2C
$GPGGA,165407.468,0000.4909,S,00000.8526,W,0,00,50,117.3,M,0.0,M,000,0000*79
$GPGSA,M,1,,,,,,,,,,,,,50,50,50*17
$GPRMC,165407.468,V,0000.4909,S,00000.8526,W,15.2,260.2,081112,0.0*26
$GPGLL,0000.4909,S,00000.8526,W,165407.468,V*28
$GPGGA,165408.515,0000.4931,S,00000.8563,W,0,00,50,117.7,M,0.0,M,000,0000*71
$GPGSA,M,1,,,,,,,,,,,,,50,50,50*17
$GPRMC,165408.515,V,0000.4931,S,00000.8563,W,15.6,260.2,081112,0.0*2C
$GPGLL,0000.4931,S,00000.8563,W,165408.515,V*26
$GPGSV,2,1,8,25,62,053,25,01,55,068,42,14,19,095,45,30,11,048,43*41
$GPGSV,2,2,8,20,51,315,30,16,32,162,02,11,18,264,13,21,06,275,06*48
$GPGGA,165409.593,0000.4955,S,00000.8603,W,0,00,50,117.3,M,0.0,M,000,0000*7D
$GPGSA,M,1,,,,,,,,,,,,,50,50,50*17
$GPRMC,165409.593,V,0000.4955,S,00000.8603,W,15.2,260.2,081112,0.0*20
$GPGLL,0000.4955,S,00000.8603,W,165409.593,V*2C
$GPGGA,165410.640,0000.4976,S,00000.8641,W,0,00,50,117.7,M,0.0,M,000,0000*7B
$GPGSA,M,1,,,,,,,,,,,,,50,50,50*17
$GPRMC,165410.640,V,0000.4976,S,00000.8641,W,14.8,260.2,081112,0.0*29
$GPGLL,0000.4976,S,00000.8641,W,165410.640,V*2E
$GPGGA,165411.687,0000.4997,S,00000.8677,W,0,00,50,118.0,M,0.0,M,000,0000*73
$GPGSA,M,1,,,,,,,,,,,,,50,50,50*17
$GPRMC,165411.687,V,0000.4997,S,00000.8677,W,14.3,260.2,081112,0.0*22
$GPGLL,0000.4997,S,00000.8677,W,165411.687,V*2E
$GPGGA,165412.734,0000.5019,S,00000.8715,W,0,00,50,118.0,M,0.0,M,000,0000*72
$GPGSA,M,1,,,,,,,,,,,,,50,50,50*17
$GPRMC,165412.734,V,0000.5019,S,00000.8715,W,15.6,260.2,081112,0.0*27
$GPGLL,0000.5019,S,00000.8715,W,165412.734,V*2F
$GPGGA,165413.781,0000.5041,S,00000.8753,W,0,00,50,117.3,M,0.0,M,000,0000*7E
$GPGSA,M,1,,,,,,,,,,,,,50,50,50*17
$GPRMC,165413.781,V,0000.5041,S,00000.8753,W,14.8,260.2,081112,0.0*28
$GPGLL,0000.5041,S,00000.8753,W,165413.781,V*2F
$GPGSV,2,1,8,25,62,053,26,01,55,068,44,14,19,095,44,30,11,048,40*46
$GPGSV,2,2,8,20,51,315,27,16,32,162,01,11,18,264,13,21,06,275,08*43
$GPGGA,165414.859,0000.5064,S,00000.8793,W,0,00,50,116.7,M,0.0,M,000,0000*7D
$GPGSA,M,1,,,,,,,,,,,,,50,50,50*17
$GPRMC,165414.859,V,0000.5064,S,00000.8793,W,15.6,260.2,081112,0.0*21
$GPGLL,0000.5064,S,00000.8793,W,165414.859,V*29
$GPGGA,165415.921,0000.5086,S,00000.8832,W,0,00,50,117.0,M,0.0,M,000,0000*7C
$GPGSA,M,1,,,,,,,,,,,,,50,50,50*17
$GPRMC,165415.921,V,0000.5086,S,00000.8832,W,14.8,260.2,081112,0.0*29
$GPGLL,0000.5086,S,00000.8832,W,165415.921,V*2E
$GPGGA,165416.968,0000.5109,S,00000.8871,W,0,00,50,116.7,M,0.0,M,000,0000*75
$GPGSA,M,1,,,,,,,,,,,,,50,50,50*17
$GPRMC,165416.968,V,0000.5109,S,00000.8871,W,15.2,260.2,081112,0.0*2D
$GPGLL,0000.5109,S,00000.8871,W,165416.968,V*21
$GPGGA,165418.015,0000.5131,S,00000.8909,W,0,00,50,117.7,M,0.0,M,000,0000*7C
$GPGSA,M,1,,,,,,,,,,,,,50,50,50*17
$GPRMC,165418.015,V,0000.5131,S,00000.8909,W,15.2,260.2,081112,0.0*25
$GPGLL,0000.5131,S,00000.8909,W,165418.015,V*29
$GPGGA,165419.062,0000.5152,S,00000.8946,W,0,00,50,118.3,M,0.0,M,000,0000*78
$GPGSA,M,1,,,,,,,,,,,,,50,50,50*17
$GPRMC,165419.062,V,0000.5152,S,00000.8946,W,14.3,260.2,081112,0.0*2A
$GPGLL,0000.5152,S,00000.8946,W,165419.062,V*26
$GPGSV,2,1,8,25,62,053,25,01,55,068,43,14,19,095,43,30,11,048,43*46
$GPGSV,2,2,8,20,51,315,26,16,32,162,04,11,18,264,12,21,06,275,10*4F
$GPGGA,165420.140,0000.5174,S,00000.8984,W,0,00,50,118.3,M,0.0,M,000,0000*79
$GPGSA,M,1,,,,,,,,,,,,,50,50,50*17
$GPRMC,165420.140,V,0000.5174,S,00000.8984,W,15.2,260.2,081112,0.0*2B
$GPGLL,0000.5174,S,00000.8984,W,165420.140,V*27
$GPGGA,165421.187,0000.5195,S,00000.9021,W,0,00,50,117.7,M,0.0,M,000,0000*70
$GPGSA,M,1,,,,,,,,,,,,,50,50,50*17
$GPRMC,165421.187,V,0000.5195,S,00000.9021,W,14.8,260.2,081112,0.0*22
$GPGLL,0000.5195,S,00000.9021,W,165421.187,V*25
$GPGGA,165422.234,0000.5217,S,00000.9059,W,0,00,50,117.3,M,0.0,M,000,0000*7A
$GPGSA,M,1,,,,,,,,,,,,,50,50,50*17
$GPRMC,165422.234,V,0000.5217,S,00000.9059,W,15.2,260.2,081112,0.0*27
$GPGLL,0000.5217,S,00000.9059,W,165422.234,V*2B
$GPGGA,165423.281,0000.5239,S,00000.9097,W,0,00,50,117.0,M,0.0,M,000,0000*78
$GPGSA,M,1,,,,,,,,,,,,,50,50,50*17
$GPRMC,165423.281,V,0000.5239,S,00000.9097,W,14.8,260.2,081112,0.0*2D
$GPGLL,0000.5239,S,00000.9097,W,165423.281,V*2A
$GPGGA,165426.343,0000.5261,S,00000.9135,W,0,00,50,117.7,M,0.0,M,000,0000*73
$GPGSA,M,1,,,,,,,,,,,,,50,50,50*17
$GPRMC,165426.343,V,0000.5261,S,00000.9135,W,15.2,260.2,081112,0.0*2A
$GPGLL,0000.5261,S,00000.9135,W,165426.343,V*26
$GPGSV,2,1,8,25,62,053,26,01,55,068,42,14,19,095,41,30,11,048,42*45
$GPGSV,2,2,8,20,51,315,28,16,32,162,02,11,18,264,11,21,06,275,11*45
$GPGGA,165425.421,0000.5283,S,00000.9173,W,0,00,50,117.0,M,0.0,M,000,0000*78
$GPGSA,M,1,,,,,,,,,,,,,50,50,50*17
$GPRMC,165425.421,V,0000.5283,S,00000.9173,W,14.8,260.2,081112,0.0*2D
$GPGLL,0000.5283,S,00000.9173,W,165425.421,V*2A
$GPGGA,165426.468,0000.5305,S,00000.9211,W,0,00,50,117.3,M,0.0,M,000,0000*7D
$GPGSA,M,1,,,,,,,,,,,,,50,50,50*17
$GPRMC,165426.468,V,0000.5305,S,00000.9211,W,15.2,260.2,081112,0.0*20
$GPGLL,0000.5305,S,00000.9211,W,165426.468,V*2C
$GPGGA,165427.515,0000.5326,S,00000.9269,W,0,00,50,117.7,M,0.0,M,000,0000*7F
$GPGSA,M,1,,,,,,,,,,,,,50,50,50*17
$GPRMC,165427.515,V,0000.5326,S,00000.9269,W,14.8,260.2,081112,0.0*2D
$GPGLL,0000.5326,S,00000.9269,W,165427.515,V*2A
$GPGGA,165428.562,0000.5348,S,00000.9287,W,0,00,50,118.0,M,0.0,M,000,0000*72
$GPGSA,M,1,,,,,,,,,,,,,50,50,50*17
$GPRMC,165428.562,V,0000.5348,S,00000.9287,W,15.2,260.2,081112,0.0*23
$GPGLL,0000.5348,S,00000.9287,W,165428.562,V*2F
$GPGGA,165429.609,0000.5369,S,00000.9323,W,0,00,50,118.0,M,0.0,M,000,0000*71
$GPGSA,M,1,,,,,,,,,,,,,50,50,50*17
$GPRMC,165429.609,V,0000.5369,S,00000.9323,W,13.9,260.2,081112,0.0*2D
$GPGLL,0000.5369,S,00000.9323,W,165429.609,V*2C
$GPGSV,2,1,8,25,62,053,23,01,55,068,39,14,19,095,42,30,11,048,41*4E
$GPGSV,2,2,8,20,51,315,29,16,32,162,04,11,18,264,11,21,06,275,13*40
$GPGGA,165430.687,0000.5390,S,00000.9360,W,0,00,50,118.0,M,0.0,M,000,0000*7E
$GPGSA,M,1,,,,,,,,,,,,,50,50,50*17
$GPRMC,165430.687,V,0000.5390,S,00000.9360,W,13.9,260.2,081112,0.0*22
$GPGLL,0000.5390,S,00000.9360,W,165430.687,V*23
$GPGGA,165431.734,0000.5409,S,00000.9393,W,0,00,50,117.7,M,0.0,M,000,0000*75
$GPGSA,M,1,,,,,,,,,,,,,50,50,50*17
$GPRMC,165431.734,V,0000.5409,S,00000.9393,W,13.0,260.2,081112,0.0*28
$GPGLL,0000.5409,S,00000.9393,W,165431.734,V*20
$GPGGA,165432.796,0000.5430,S,00000.9428,W,0,00,50,117.7,M,0.0,M,000,0000*73
$GPGSA,M,1,,,,,,,,,,,,,50,50,50*17
$GPRMC,165432.796,V,0000.5430,S,00000.9428,W,13.9,260.2,081112,0.0*27
$GPGLL,0000.5430,S,00000.9428,W,165432.796,V*26
$GPGGA,165433.843,0000.5450,S,00000.9463,W,0,00,50,118.0,M,0.0,M,000,0000*74
$GPGSA,M,1,,,,,,,,,,,,,50,50,50*17
$GPRMC,165433.843,V,0000.5450,S,00000.9463,W,13.9,260.2,081112,0.0*28
$GPGLL,0000.5450,S,00000.9463,W,165433.843,V*29
$GPGGA,165434.890,0000.5469,S,00000.9497,W,0,00,50,118.3,M,0.0,M,000,0000*7F
$GPGSA,M,1,,,,,,,,,,,,,50,50,50*17
$GPRMC,165434.890,V,0000.5469,S,00000.9497,W,13.5,260.2,081112,0.0*2C
$GPGLL,0000.5469,S,00000.9497,W,165434.890,V*21
$GPGSV,2,1,8,25,62,053,25,01,55,068,41,14,19,095,42,30,11,048,39*48
$GPGSV,2,2,8,20,51,315,28,16,32,162,01,11,18,264,10,21,06,275,15*43
$GPGGA,165435.968,0000.5490,S,00000.9532,W,0,00,50,118.0,M,0.0,M,000,0000*73
$GPGSA,M,1,,,,,,,,,,,,,50,50,50*17
$GPRMC,165435.968,V,0000.5490,S,00000.9532,W,13.5,260.2,081112,0.0*23
$GPGLL,0000.5490,S,00000.9532,W,165435.968,V*2E
$GPGGA,165437.015,0000.5509,S,00000.9566,W,0,00,50,118.3,M,0.0,M,000,0000*71
$GPGSA,M,1,,,,,,,,,,,,,50,50,50*17
$GPRMC,165437.015,V,0000.5509,S,00000.9566,W,13.5,260.2,081112,0.0*22
$GPGLL,0000.5509,S,00000.9566,W,165437.015,V*2F
$GPGGA,165438.062,0000.5529,S,00000.9600,W,0,00,50,118.3,M,0.0,M,000,0000*7F
$GPGSA,M,1,,,,,,,,,,,,,50,50,50*17
$GPRMC,165438.062,V,0000.5529,S,00000.9600,W,13.0,260.2,081112,0.0*29
$GPGLL,0000.5529,S,00000.9600,W,165438.062,V*21
$GPGGA,165439.109,0000.5547,S,00000.9631,W,0,00,50,118.3,M,0.0,M,000,0000*78
$GPGSA,M,1,,,,,,,,,,,,,50,50,50*17
$GPRMC,165439.109,V,0000.5547,S,00000.9631,W,12.2,260.2,081112,0.0*2D
$GPGLL,0000.5547,S,00000.9631,W,165439.109,V*26
$GPGGA,165440.156,0000.5565,S,00000.9664,W,0,00,50,118.6,M,0.0,M,000,0000*79
$GPGSA,M,1,,,,,,,,,,,,,50,50,50*17
$GPRMC,165440.156,V,0000.5565,S,00000.9664,W,13.0,260.2,081112,0.0*2A
$GPGLL,0000.5565,S,00000.9664,W,165440.156,V*22
$GPGSV,2,1,8,25,62,053,23,01,55,068,38,14,19,095,43,30,11,048,39*41
$GPGSV,2,2,8,20,51,315,29,16,32,162,03,11,18,264,11,21,06,275,15*41
$GPGGA,165441.250,0000.5585,S,00000.9698,W,0,00,50,118.3,M,0.0,M,000,0000*75
$GPGSA,M,1,,,,,,,,,,,,,50,50,50*17
$GPRMC,165441.250,V,0000.5585,S,00000.9698,W,13.5,260.2,081112,0.0*26
$GPGLL,0000.5585,S,00000.9698,W,165441.250,V*2B
$GPGGA,165442.296,0000.5604,S,00000.9731,W,0,00,50,118.9,M,0.0,M,000,0000*7E
$GPGSA,M,1,,,,,,,,,,,,,50,50,50*17
$GPRMC,165442.296,V,0000.5604,S,00000.9731,W,13.5,260.2,081112,0.0*27
$GPGLL,0000.5604,S,00000.9731,W,165442.296,V*2A
$GPGGA,165443.343,0000.5626,S,00000.9766,W,0,00,50,118.6,M,0.0,M,000,0000*79
$GPGSA,M,1,,,,,,,,,,,,,50,50,50*17
$GPRMC,165443.343,V,0000.5626,S,00000.9766,W,13.5,260.2,081112,0.0*2F
$GPGLL,0000.5626,S,00000.9766,W,165443.343,V*22
$GPGGA,165444.390,0000.5645,S,00000.9801,W,0,00,50,118.0,M,0.0,M,000,0000*7F
$GPGSA,M,1,,,,,,,,,,,,,50,50,50*17
$GPRMC,165444.390,V,0000.5645,S,00000.9801,W,14.3,260.2,081112,0.0*2E
$GPGLL,0000.5645,S,00000.9801,W,165444.390,V*22
$GPGGA,165445.437,0000.5665,S,00000.9837,W,0,00,50,117.3,M,0.0,M,000,0000*7F
$GPGSA,M,1,,,,,,,,,,,,,50,50,50*17
$GPRMC,165445.437,V,0000.5665,S,00000.9837,W,14.3,260.2,081112,0.0*22
$GPGLL,0000.5665,S,00000.9837,W,165445.437,V*2E
$GPGSV,2,1,8,25,62,053,25,01,55,068,41,14,19,095,42,30,11,048,36*47
$GPGSV,2,2,8,20,51,315,30,16,32,162,05,11,18,264,09,21,06,275,15*46
$GPGGA,165446.515,0000.5687,S,00000.9874,W,0,00,50,117.0,M,0.0,M,000,0000*75
$GPGSA,M,1,,,,,,,,,,,,,50,50,50*17
$GPRMC,165446.515,V,0000.5687,S,00000.9874,W,14.8,260.2,081112,0.0*20
$GPGLL,0000.5687,S,00000.9874,W,165446.515,V*27
$GPGGA,165447.562,0000.5708,S,00000.9912,W,0,00,50,117.0,M,0.0,M,000,0000*73
$GPGSA,M,1,,,,,,,,,,,,,50,50,50*17
$GPRMC,165447.562,V,0000.5708,S,00000.9912,W,15.2,260.2,081112,0.0*2D
$GPGLL,0000.5708,S,00000.9912,W,165447.562,V*21
$GPGGA,165448.609,0000.5731,S,00000.9951,W,0,00,50,116.7,M,0.0,M,000,0000*79
$GPGSA,M,1,,,,,,,,,,,,,50,50,50*17
$GPRMC,165448.609,V,0000.5731,S,00000.9951,W,15.6,260.2,081112,0.0*25
$GPGLL,0000.5731,S,00000.9951,W,165448.609,V*2D
$GPGGA,165449.671,0000.5754,S,00000.9991,W,0,00,50,116.4,M,0.0,M,000,0000*7B
$GPGSA,M,1,,,,,,,,,,,,,50,50,50*17
$GPRMC,165449.671,V,0000.5754,S,00000.9991,W,15.2,260.2,081112,0.0*20
$GPGLL,0000.5754,S,00000.9991,W,165449.671,V*2C
$GPGGA,165450.718,0000.5775,S,00001.0028,W,0,00,50,116.7,M,0.0,M,000,0000*7E
$GPGSA,M,1,,,,,,,,,,,,,50,50,50*17
$GPRMC,165450.718,V,0000.5775,S,00001.0028,W,14.3,260.2,081112,0.0*26
$GPGLL,0000.5775,S,00001.0028,W,165450.718,V*2A
$GPGSV,2,1,8,25,62,053,25,01,55,068,40,14,19,095,45,30,11,048,34*43
$GPGSV,2,2,8,20,51,315,33,16,32,162,05,11,18,264,10,21,06,275,15*4D
$GPGGA,165451.796,0000.5797,S,00001.0066,W,0,00,50,117.0,M,0.0,M,000,0000*79
$GPGSA,M,1,,,,,,,,,,,,,50,50,50*17
$GPRMC,165451.796,V,0000.5797,S,00001.0066,W,14.8,260.2,081112,0.0*2C
$GPGLL,0000.5797,S,00001.0066,W,165451.796,V*2B
$GPGGA,165452.843,0000.5818,S,00001.0103,W,0,00,50,117.0,M,0.0,M,000,0000*77
$GPGSA,M,1,,,,,,,,,,,,,50,50,50*17
$GPRMC,165452.843,V,0000.5818,S,00001.0103,W,14.8,260.2,081112,0.0*22
$GPGLL,0000.5818,S,00001.0103,W,165452.843,V*25
$GPGGA,165453.890,0000.5840,S,00001.0140,W,0,00,50,118.0,M,0.0,M,000,0000*7D
$GPGSA,M,1,,,,,,,,,,,,,50,50,50*17
$GPRMC,165453.890,V,0000.5840,S,00001.0140,W,14.8,260.2,081112,0.0*27
$GPGLL,0000.5840,S,00001.0140,W,165453.890,V*20
$GPGGA,165454.937,0000.5861,S,00001.0177,W,0,00,50,118.9,M,0.0,M,000,0000*78
$GPGSA,M,1,,,,,,,,,,,,,50,50,50*17
$GPRMC,165454.937,V,0000.5861,S,00001.0177,W,14.3,260.2,081112,0.0*20
$GPGLL,0000.5861,S,00001.0177,W,165454.937,V*2C
$GPGGA,165455.984,0000.5882,S,00001.0213,W,0,00,50,119.2,M,0.0,M,000,0000*77
$GPGSA,M,1,,,,,,,,,,,,,50,50,50*17
$GPRMC,165455.984,V,0000.5882,S,00001.0213,W,14.3,260.2,081112,0.0*25
$GPGLL,0000.5882,S,00001.0213,W,165455.984,V*29
$GPGSV,2,1,8,25,62,053,23,01,55,068,40,14,19,095,46,30,11,048,35*47
$GPGSV,2,2,8,20,51,315,33,16,32,162,05,11,18,264,09,21,06,275,13*43
$GPGGA,165457.062,0000.5903,S,00001.0269,W,0,00,50,119.2,M,0.0,M,000,0000*73
$GPGSA,M,1,,,,,,,,,,,,,50,50,50*17
$GPRMC,165457.062,V,0000.5903,S,00001.0269,W,13.5,260.2,081112,0.0*20
$GPGLL,0000.5903,S,00001.0269,W,165457.062,V*2D
$GPGGA,165458.125,0000.5923,S,00001.0284,W,0,00,50,118.3,M,0.0,M,000,0000*7D
$GPGSA,M,1,,,,,,,,,,,,,50,50,50*17
$GPRMC,165458.125,V,0000.5923,S,00001.0284,W,13.9,260.2,081112,0.0*22
$GPGLL,0000.5923,S,00001.0284,W,165458.125,V*23
$GPGGA,165459.171,0000.5943,S,00001.0320,W,0,00,50,118.0,M,0.0,M,000,0000*77
$GPGSA,M,1,,,,,,,,,,,,,50,50,50*17
$GPRMC,165459.171,V,0000.5943,S,00001.0320,W,14.3,260.2,081112,0.0*26
$GPGLL,0000.5943,S,00001.0320,W,165459.171,V*2A
$GPGGA,165500.218,0000.5964,S,00001.0355,W,0,00,50,117.7,M,0.0,M,000,0000*79
$GPGSA,M,1,,,,,,,,,,,,,50,50,50*17
$GPRMC,165500.218,V,0000.5964,S,00001.0355,W,13.9,260.2,081112,0.0*2D
$GPGLL,0000.5964,S,00001.0355,W,165500.218,V*2C
$GPGGA,165501.265,0000.5984,S,00001.0390,W,0,00,50,117.3,M,0.0,M,000,0000*71
$GPGSA,M,1,,,,,,,,,,,,,50,50,50*17
$GPRMC,165501.265,V,0000.5984,S,00001.0390,W,13.9,260.2,081112,0.0*21
$GPGLL,0000.5984,S,00001.0390,W,165501.265,V*20
$GPGSV,2,1,8,25,62,053,20,01,55,068,42,14,19,095,49,30,11,048,36*4A
$GPGSV,2,2,8,20,51,315,35,16,32,162,04,11,18,264,08,21,06,275,13*45
$GPGGA,165502.343,0000.6005,S,00001.0426,W,0,00,50,117.0,M,0.0,M,000,0000*7D
$GPGSA,M,1,,,,,,,,,,,,,50,50,50*17
$GPRMC,165502.343,V,0000.6005,S,00001.0426,W,13.9,260.2,081112,0.0*2E
$GPGLL,0000.6005,S,00001.0426,W,165502.343,V*2F
$GPGGA,165503.390,0000.6025,S,00001.0461,W,0,00,50,117.0,M,0.0,M,000,0000*73
$GPGSA,M,1,,,,,,,,,,,,,50,50,50*17
$GPRMC,165503.390,V,0000.6025,S,00001.0461,W,13.9,260.2,081112,0.0*20
$GPGLL,0000.6025,S,00001.0461,W,165503.390,V*21
$GPGGA,165504.437,0000.6046,S,00001.0499,W,0,00,50,117.3,M,0.0,M,000,0000*7F
$GPGSA,M,1,,,,,,,,,,,,,50,50,50*17
$GPRMC,165504.437,V,0000.6046,S,00001.0499,W,15.2,260.2,081112,0.0*22
$GPGLL,0000.6046,S,00001.0499,W,165504.437,V*2E
$GPGGA,165505.500,0000.6069,S,00001.0539,W,0,00,50,117.3,M,0.0,M,000,0000*7D
$GPGSA,M,1,,,,,,,,,,,,,50,50,50*17
$GPRMC,165505.500,V,0000.6069,S,00001.0539,W,15.6,260.2,081112,0.0*26
$GPGLL,0000.6069,S,00001.0539,W,165505.500,V*2C
$GPGGA,165506.546,0000.6091,S,00001.0577,W,0,00,50,117.3,M,0.0,M,000,0000*71
$GPGSA,M,1,,,,,,,,,,,,,50,50,50*17
$GPRMC,165506.546,V,0000.6091,S,00001.0577,W,15.2,260.2,081112,0.0*2C
$GPGLL,0000.6091,S,00001.0577,W,165506.546,V*20
$GPGSV,2,1,8,25,62,053,22,01,55,068,41,14,19,095,45,30,11,048,36*47
$GPGSV,2,2,8,20,51,315,34,16,32,162,03,11,18,264,08,21,06,275,15*45
$GPGGA,165507.625,0000.6115,S,00001.0617,W,0,00,50,117.7,M,0.0,M,000,0000*7A
$GPGSA,M,1,,,,,,,,,,,,,50,50,50*17
$GPRMC,165507.625,V,0000.6115,S,00001.0617,W,15.6,260.2,081112,0.0*27
$GPGLL,0000.6115,S,00001.0617,W,165507.625,V*2F
$GPGGA,165508.671,0000.6138,S,00001.0658,W,0,00,50,118.0,M,0.0,M,000,0000*78
$GPGSA,M,1,,,,,,,,,,,,,50,50,50*17
$GPRMC,165508.671,V,0000.6138,S,00001.0658,W,16.1,260.2,081112,0.0*29
$GPGLL,0000.6138,S,00001.0658,W,165508.671,V*25
$GPGGA,165509.718,0000.6161,S,00001.0698,W,0,00,50,118.0,M,0.0,M,000,0000*77
$GPGSA,M,1,,,,,,,,,,,,,50,50,50*17
$GPRMC,165509.718,V,0000.6161,S,00001.0698,W,15.6,260.2,081112,0.0*22
$GPGLL,0000.6161,S,00001.0698,W,165509.718,V*2A
$GPGGA,165510.765,0000.6185,S,00001.0739,W,0,00,50,117.7,M,0.0,M,000,0000*7D
$GPGSA,M,1,,,,,,,,,,,,,50,50,50*17
$GPRMC,165510.765,V,0000.6185,S,00001.0739,W,16.9,260.2,081112,0.0*2C
$GPGLL,0000.6185,S,00001.0739,W,165510.765,V*28
$GPGGA,165511.812,0000.6211,S,00001.0785,W,0,00,50,117.7,M,0.0,M,000,0000*7A
$GPGSA,M,1,,,,,,,,,,,,,50,50,50*17
$GPRMC,165511.812,V,0000.6211,S,00001.0785,W,18.2,260.2,081112,0.0*2E
$GPGLL,0000.6211,S,00001.0785,W,165511.812,V*2F
$GPGSV,2,1,8,25,62,053,21,01,55,068,42,14,19,095,47,30,11,048,35*46
$GPGSV,2,2,8,20,51,315,35,16,32,162,00,11,18,264,07,21,06,275,11*4C
$GPGGA,165512.890,0000.6238,S,00001.0831,W,0,00,50,118.3,M,0.0,M,000,0000*73
$GPGSA,M,1,,,,,,,,,,,,,50,50,50*17
$GPRMC,165512.890,V,0000.6238,S,00001.0831,W,17.8,260.2,081112,0.0*29
$GPGLL,0000.6238,S,00001.0831,W,165512.890,V*2D
$GPGGA,165513.953,0000.6264,S,00001.0877,W,0,00,50,119.2,M,0.0,M,000,0000*77
$GPGSA,M,1,,,,,,,,,,,,,50,50,50*17
$GPRMC,165513.953,V,0000.6264,S,00001.0877,W,17.8,260.2,081112,0.0*2D
$GPGLL,0000.6264,S,00001.0877,W,165513.953,V*29
$GPGGA,165515.000,0000.6290,S,00001.0922,W,0,00,50,120.4,M,0.0,M,000,0000*78
$GPGSA,M,1,,,,,,,,,,,,,50,50,50*17
$GPRMC,165515.000,V,0000.6290,S,00001.0922,W,17.8,260.2,081112,0.0*2E
$GPGLL,0000.6290,S,00001.0922,W,165515.000,V*2A
$GPGGA,165516.046,0000.6315,S,00001.0965,W,0,00,50,120.4,M,0.0,M,000,0000*76
$GPGSA,M,1,,,,,,,,,,,,,50,50,50*17
$GPRMC,165516.046,V,0000.6315,S,00001.0965,W,16.9,260.2,081112,0.0*20
$GPGLL,0000.6315,S,00001.0965,W,165516.046,V*26
$GPGGA,165517.093,0000.6340,S,00001.1009,W,0,00,50,120.7,M,0.0,M,000,0000*7E
$GPGSA,M,1,,,,,,,,,,,,,50,50,50*17
$GPRMC,165517.093,V,0000.6340,S,00001.1009,W,16.9,260.2,081112,0.0*2B
$GPGLL,0000.6340,S,00001.1009,W,165517.093,V*2F
$GPGSV,2,1,8,25,62,053,19,01,55,068,40,14,19,095,48,30,11,048,37*42
$GPGSV,2,2,8,20,51,315,33,16,32,162,01,11,18,264,05,21,06,275,13*4B
